~VERSION INFORMATION
VERS.                                                 2.0:   CWLS Log ASCII Standard-VERSION 2.0
WRAP.                                                  NO:   One line per depth step
~Well Information Block
STRT.F                                          3712.5000:   Top Depth
STOP.F                                         13707.5000:   Bottom Depth
STEP.F                                             .50000:   Depth Increment
NULL.                                            -999.250:   Null Value
FLD .                                             FREEMAN:   Field Name
WELL.                                         FREEMAN-001:   NAME
CTRY.                                                 NIG:   COUNTRY
COMP.                                                SPDC:   OPERATOR
SPUD.                                          1995/09/27:   SPUD DATE
UWBI.                                      40000000257301:   UWBI
~PARAMETER INFORMATION (log)
LNAM.                                              PUBLIC:   NAME
LTYP.                                         INTERPRETED:   LOG TYPE
LSRV.                                          EVALUATION:   SERVICE
LSOU.                                             TECHLOG:   LOG SOURCE
LVSN.                                                   1:   LOG VERSION
BHIS.                                                  RC:   BRIEF HISTORY
FHIS.                                     RAW-LAS/PUBLISH:   FULL HISTORY
CN  .                                              SNEPCO:   OPERATOR
~Curve Information Block
#MNEM.UNIT                                        API CODE    No Description
#=========                                        ========    == ===========
DEPT.F     FT. MD                            00 001 00 00:     1  DEPTH
DEN.G/CC                                                 :     2  Bulk Density
DT.US/F                                                  :     3  Sonic (Compressional)         Compressional sonic
GR.API                                                   :     4  Gamma Ray
NEUT.FRAC                                                :     5  Neutron Porosity
RES_DEP.OHMM                                             :     6  Resistivity Deep              Deep resistivity. RSN_01<5433> ATR_J <65
~ASCII
# ...
 8653.5000     2.2722   135.5801    80.7109      .4697     1.2374
 8654.0000     2.2900   135.4455    80.2269      .4349     1.1929
 8654.5000     2.2966   135.3947    80.6948      .4420     1.1499
 8655.0000     2.2891   135.6696    80.1032      .4253     1.1431
 8655.5000     2.2774   136.0535    80.3231      .4369     1.1140
 8656.0000     2.2707   136.2918    80.2193      .4405     1.0877
 8656.5000     2.2844   136.3429    78.8076      .4845     1.1126
 8657.0000     2.2961   136.2765    80.8548      .5039     1.1290
 8657.5000     2.2996   136.3626    79.8643      .4855     1.1303
 8658.0000     2.3017   136.8114    80.8095      .4589     1.1773
 8658.5000     2.2929   137.5409    81.5093      .4517     1.1646
 8659.0000     2.2998   137.9024    80.9259      .4869     1.1514
 8659.5000     2.3059   137.4632    80.5692      .4944     1.1420
 8660.0000     2.3033   136.8580    79.1243      .4766     1.1485
 8660.5000     2.2904   136.6146    80.5852      .5154     1.0698
 8661.0000     2.2752   136.5263    81.5454      .5135     1.0881
 8661.5000     2.2887   136.5198    80.1060      .5410     1.1088
 8662.0000     2.2990   136.6355    79.9836      .5033     1.1058
 8662.5000     2.3124   136.8877    81.7916      .4989     1.1765
 8663.0000     2.3045   137.2699    80.8738      .5079     1.2256
 8663.5000     2.2991   137.4760    79.9712      .4733     1.2026
 8664.0000     2.2913   137.0493    82.1367      .4741     1.1940
 8664.5000     2.2910   135.8376    81.8602      .4427     1.0922
 8665.0000     2.2775   134.3081    85.6803      .4723     1.0040
 8665.5000     2.2630   133.0830    83.8055      .4558      .9966
 8666.0000     2.2466   132.1013    81.9620      .4659     1.0457
 8666.5000     2.2505   131.3625    80.1892      .4435     1.1697
 8667.0000     2.2511   131.2024    79.1763      .4591     1.2943
 8667.5000     2.2640   131.4816    74.5180      .4348     1.3865
 8668.0000     2.2890   131.9235    73.4114      .4382     1.5174
 8668.5000     2.3008   132.3174    73.3675      .4290     1.4575
 8669.0000     2.2954   132.7627    75.4971      .4553     1.4208
 8669.5000     2.2754   133.2927    79.2341      .4742     1.3623
 8670.0000     2.2759   133.5038    79.2055      .4905     1.3316
 8670.5000     2.2651   133.1939    78.0271      .4885     1.3046
 8671.0000     2.2481   132.7655    79.6009      .4975     1.3292
 8671.5000     2.2469   132.3966    78.6978      .4931     1.3534
 8672.0000     2.2592   132.0281    79.7112      .4886     1.2983
 8672.5000     2.2819   131.8496    80.0257      .4520     1.2532
 8673.0000     2.2802   132.1426    78.1734      .4658     1.2632
 8673.5000     2.2854   132.6994    77.3760      .4890     1.3285
 8674.0000     2.2982   133.2067    78.1766      .4805     1.3584
 8674.5000     2.3089   133.7355    79.0060      .4923     1.3720
 8675.0000     2.2855   134.0135    76.6918      .4617     1.3785
 8675.5000     2.2614   133.7637    78.6451      .4756     1.3265
 8676.0000     2.2336   133.0889    78.2197      .4589     1.2292
 8676.5000     2.2417   132.1783    78.9955      .4772     1.2017
 8677.0000     2.2350   131.4169    82.3615      .5275     1.2352
 8677.5000     2.2400   131.0962    83.1612      .5187     1.2482
 8678.0000     2.2429   130.9926    83.7174      .4999     1.2444
 8678.5000     2.2765   131.0038    82.6367      .4793     1.2865
 8679.0000     2.2903   131.3386    83.3741      .4919     1.2343
 8679.5000     2.3042   131.9206    81.2640      .5190     1.2300
 8680.0000     2.3102   132.4746    81.7808      .4870     1.1987
 8680.5000     2.3080   132.9526    82.3133      .4465     1.1733
 8681.0000     2.2946   133.4373    82.1525      .4227     1.1984
 8681.5000     2.2858   133.9019    81.5290      .4498     1.1599
 8682.0000     2.2877   134.2251    81.4115      .4593     1.2173
 8682.5000     2.2919   134.4435    81.3954      .4769     1.2263
 8683.0000     2.2909   134.6432    82.6730      .4584     1.2145
 8683.5000     2.2864   134.6186    82.3687      .4606     1.2511
 8684.0000     2.2880   134.3271    81.0779      .4413     1.2576
 8684.5000     2.2928   134.0461    81.9974      .4522     1.2290
 8685.0000     2.2985   133.9041    81.6341      .4741     1.2846
 8685.5000     2.3016   133.8036    77.5630      .4691     1.2594
 8686.0000     2.3007   133.6711    82.3357      .4622     1.2428
 8686.5000     2.3103   133.7580    81.1205      .4572     1.2749
 8687.0000     2.3107   134.1490    79.5540      .4930     1.2538
 8687.5000     2.3061   134.6059    80.9286      .5410     1.2584
 8688.0000     2.2956   135.1285    81.4909      .5401     1.2471
 8688.5000     2.2795   135.6849    80.7026      .5231     1.2664
 8689.0000     2.2748   135.9751    81.9370      .4973     1.1858
 8689.5000     2.2701   135.8886    81.4774      .4909     1.2338
 8690.0000     2.2760   135.5272    82.5608      .4762     1.2309
 8690.5000     2.2795   134.8332    81.5245      .4800     1.2346
 8691.0000     2.2825   134.0753    79.7713      .4710     1.1698
 8691.5000     2.2783   133.8581    78.0027      .4825      .9786
 8692.0000     2.2804   134.3119    79.1488      .4710      .9630
 8692.5000     2.2832   135.0685    77.5575      .5064      .9748
 8693.0000     2.2934   135.9430    75.9160      .5064     1.0062
 8693.5000     2.2981   137.1649    74.6241      .4846     1.0902
 8694.0000     2.2778   138.5471    72.4512      .4836     1.0564
 8694.5000     2.2679   139.6729    78.0076      .4585     1.0322
 8695.0000     2.2513   140.5027    76.9745      .4670      .9530
 8695.5000     2.2423   140.8452    77.8825      .4485      .9440
 8696.0000     2.2382   140.5428    77.7859      .5056      .9906
 8696.5000     2.2381   139.9924    76.6401      .5041     1.0804
 8697.0000     2.2452   139.7401    74.5366      .5252     1.1019
 8697.5000     2.2502   139.7767    75.0343      .4961     1.1125
 8698.0000     2.2480   140.0998    73.8533      .4772     1.1339
 8698.5000     2.2466   140.7603    74.7892      .4643     1.1058
 8699.0000     2.2429   141.4348    73.6239      .4615     1.1269
 8699.5000     2.2304   141.8996    73.1343      .4915     1.1255
 8700.0000     2.1857   142.2768    73.2445      .4992     1.1579
 8700.5000     2.1336   142.6219    72.3220      .5178     1.1270
 8701.0000     2.1154   142.8502    71.9141      .5047     1.1178
 8701.5000     2.1433   142.4035    70.7417      .5174     1.0954
 8702.0000     2.1837   140.7616    71.5611      .4925     1.1231
 8702.5000     2.1819   138.9050    71.3552      .5221     1.1482
 8703.0000     2.1959   138.0284    71.6911      .5117     1.1737
 8703.5000     2.2315   137.9659    73.0320      .5216     1.1759
 8704.0000     2.2576   138.4564    74.0402      .5192     1.2070
 8704.5000     2.2490   139.1610    72.6024      .5169     1.1619
 8705.0000     2.2459   139.6786    73.3541      .4861     1.1933
 8705.5000     2.2503   139.9254    72.0263      .4468     1.1647
 8706.0000     2.2538   139.8980    71.2984      .4469     1.1593
 8706.5000     2.2467   139.8570    72.0070      .4826     1.1501
 8707.0000     2.2380   140.0426    71.1384      .4812     1.1037
 8707.5000     2.2372   140.2849    69.3127      .4573     1.1162
 8708.0000     2.2481   140.3799    70.8069      .4730     1.0845
 8708.5000     2.2588   140.3676    69.2196      .5100     1.1078
 8709.0000     2.2477   140.3731    73.2215      .5059     1.0734
 8709.5000     2.2364   140.3396    74.2162      .5032     1.0893
 8710.0000     2.2247   140.0875    75.7607      .4954     1.1114
 8710.5000     2.2301   139.3458    75.7950      .5388     1.1034
 8711.0000     2.2400   138.4335    75.3107      .5431     1.1387
 8711.5000     2.2454   138.0658    71.8365      .5510     1.1727
 8712.0000     2.2471   138.2457    75.6245      .5136     1.1805
 8712.5000     2.2416   138.5214    77.4068      .5176     1.1684
 8713.0000     2.2320   138.6592    77.9099      .5287     1.1735
 8713.5000     2.2287   138.7905    79.2980      .5674     1.1849
 8714.0000     2.2218   138.9171    78.7537      .5474     1.2006
