~VERSION INFORMATION
VERS.                                                 2.0:   CWLS Log ASCII Standard-VERSION 2.0
WRAP.                                                  NO:   One line per depth step
~Well Information Block
STRT.F                                          3712.5000:   Top Depth
STOP.F                                         13707.5000:   Bottom Depth
STEP.F                                             .50000:   Depth Increment
NULL.                                            -999.250:   Null Value
FLD .                                             FREEMAN:   Field Name
WELL.                                         FREEMAN-001:   NAME
CTRY.                                                 NIG:   COUNTRY
COMP.                                                SPDC:   OPERATOR
SPUD.                                          1995/09/27:   SPUD DATE
UWBI.                                      40000000257301:   UWBI
~PARAMETER INFORMATION (log)
LNAM.                                              PUBLIC:   NAME
LTYP.                                         INTERPRETED:   LOG TYPE
LSRV.                                          EVALUATION:   SERVICE
LSOU.                                             TECHLOG:   LOG SOURCE
LVSN.                                                   1:   LOG VERSION
BHIS.                                                  RC:   BRIEF HISTORY
FHIS.                                     RAW-LAS/PUBLISH:   FULL HISTORY
CN  .                                              SNEPCO:   OPERATOR
~Curve Information Block
#MNEM.UNIT                                        API CODE    No Description
#=========                                        ========    == ===========
DEPT.F     FT. MD                            00 001 00 00:     1  DEPTH
DEN.G/CC                                                 :     2  Bulk Density
DT.US/F                                                  :     3  Sonic (Compressional)         Compressional sonic
GR.API                                                   :     4  Gamma Ray
NEUT.FRAC                                                :     5  Neutron Porosity
RES_DEP.OHMM                                             :     6  Resistivity Deep              Deep resistivity. RSN_01<5433> ATR_J <65
~ASCII
# ...
10910.5000     2.4863    95.8950    72.3354      .3374     2.0783
10911.0000     2.4900    94.5800    73.7364      .3466     2.1113
10911.5000     2.4778    94.4220    73.5255      .3447     2.1828
10912.0000     2.4721    95.5760    74.8178      .3469     2.1241
10912.5000     2.4638    97.5380    74.4213      .3673     1.9937
10913.0000     2.4613    99.9340    73.9161      .4246     1.8808
10913.5000     2.4473   102.0000    75.8928      .4491     1.7921
10914.0000     2.4561   106.0000    75.1275      .4326     1.7224
10914.5000     2.4795   110.0000    75.0176      .3794     1.7442
10915.0000     2.4995   113.0000    75.7964      .3827     1.7176
10915.5000     2.4570   116.0000    76.4511      .4148     1.6447
10916.0000     2.3859   116.0000    78.0518      .4592     1.5600
10916.5000     2.3263   116.0000    77.0957      .4802     1.5261
10917.0000     2.3185   116.0000    77.8592      .4539     1.5042
10917.5000     2.3044   117.0000    77.2198      .4589     1.5332
10918.0000     2.2907   116.0000    75.5355      .4488     1.6132
10918.5000     2.2775   115.0000    76.0710      .4914     1.6981
10919.0000     2.3008   112.0000    77.1152      .4749     1.7248
10919.5000     2.3186   109.0000    78.6295      .4745     1.7750
10920.0000     2.3260   105.0000    77.8124      .4321     1.8969
10920.5000     2.3456   103.0000    78.2936      .4221     1.9894
10921.0000     2.3760   102.0000    77.4496      .4186     2.0282
10921.5000     2.4115   103.0000    75.4728      .4067     2.0703
10922.0000     2.4435   104.0000    77.3197      .3814     2.1669
10922.5000     2.4536   106.0000    78.1688      .3531     2.2543
10923.0000     2.4466   109.0000    77.5867      .3554     2.1253
10923.5000     2.4210   111.0000    78.8674      .3468     1.8909
10924.0000     2.3806   112.0000    82.6407      .3586     1.6738
10924.5000     2.3614   113.0000    83.9352      .3915     1.5758
10925.0000     2.3430   114.0000    83.2657      .4373     1.5819
10925.5000     2.3456   114.0000    83.7571      .4733     1.6916
10926.0000     2.3307   114.0000    79.1178      .4657     1.7166
10926.5000     2.3376   113.0000    79.6122      .4639     1.7170
10927.0000     2.3425   112.0000    83.3920      .4463     1.6989
10927.5000     2.3592   111.0000    82.4676      .4424     1.7217
10928.0000     2.3709   112.0000    82.7297      .4564     1.7304
10928.5000     2.3780   114.0000    82.1351      .4513     1.7633
10929.0000     2.3877   116.0000    82.1219      .4471     1.7894
10929.5000     2.3831   116.0000    82.7964      .4269     1.8084
10930.0000     2.3851   116.0000    84.8127      .4363     1.8483
10930.5000     2.3791   115.0000    83.1338      .4338     1.8553
10931.0000     2.3689   113.0000    82.6222      .4477     1.8028
10931.5000     2.3664   111.0000    83.8330      .4221     1.7976
10932.0000     2.3787   110.0000    84.1380      .4544     1.7531
10932.5000     2.3910   108.0000    81.9160      .4526     1.7362
10933.0000     2.4083   107.0000    79.9346      .4733     1.8035
10933.5000     2.4222   106.0000    80.7206      .4489     1.8883
10934.0000     2.4364   104.0000    82.0989      .4408     2.0056
10934.5000     2.4431   103.0000    80.3275      .4089     2.1397
10935.0000     2.4578   101.0000    82.4860      .3814     2.1909
10935.5000     2.4725   100.0000    74.5842      .3516     2.2094
10936.0000     2.4746    97.9560    74.2551      .3300     2.2054
10936.5000     2.4731    96.0230    76.8116      .3136     2.1502
10937.0000     2.4628    94.8590    75.2881      .3259     2.2422
10937.5000     2.4564    94.2540    76.2586      .3532     2.5621
10938.0000     2.4261    93.6090    71.9312      .3747     3.2697
10938.5000     2.3964    92.2830    48.7233      .3037     3.7487
10939.0000     2.3773    91.0130    33.4553      .2085     2.4770
10939.5000     2.3826    91.3700    31.4179      .1218     1.9049
10940.0000     2.4097    93.5640    40.4568      .1220     1.8403
10940.5000     2.4414    96.1260    48.9836      .1767     1.7437
10941.0000     2.4645    98.2480    59.9396      .2432     1.8353
10941.5000     2.4779    99.9030    71.6556      .3085     2.1018
10942.0000     2.4749   101.0000    75.2817      .3281     2.2732
10942.5000     2.4823   103.0000    76.9971      .3503     2.0647
10943.0000     2.4789   105.0000    68.8051      .3429     1.9270
10943.5000     2.4781   107.0000    74.5812      .3534     1.7530
10944.0000     2.4699   109.0000    73.2543      .3549     1.6906
10944.5000     2.4634   110.0000    75.0785      .3549     1.6877
10945.0000     2.4424   110.0000    74.3441      .3488     1.6806
10945.5000     2.4262   109.0000    75.4960      .3550     1.5833
10946.0000     2.4141   108.0000    77.0483      .3812     1.5446
10946.5000     2.4141   105.0000    78.1464      .4226     1.6468
10947.0000     2.4225   103.0000    75.3989      .4171     1.8498
10947.5000     2.4440   100.0000    73.9937      .3913     2.0473
10948.0000     2.4649    99.1440    74.3169      .3375     2.1173
10948.5000     2.4724    98.5090    74.2641      .3312     2.2352
10949.0000     2.4708    98.3840    73.8598      .3453     2.2734
10949.5000     2.4700    99.1490    72.7905      .3472     2.3007
10950.0000     2.4709   102.0000    74.5331      .3350     2.3404
10950.5000     2.4723   106.0000    72.5068      .3153     2.2570
10951.0000     2.4785   110.0000    73.5174      .3405     2.0082
10951.5000     2.4798   113.0000    74.0493      .3654     1.8129
10952.0000     2.4727   114.0000    76.7325      .4133     1.6626
10952.5000     2.4402   115.0000    86.8326      .4361     1.5715
10953.0000     2.4116   116.0000    86.1081      .4439     1.4905
10953.5000     2.3891   116.0000    86.6989      .4349     1.5022
10954.0000     2.3988   116.0000    86.4970      .4218     1.5455
10954.5000     2.4325   115.0000    85.4047      .4274     1.6360
10955.0000     2.4906   115.0000    83.0820      .4171     1.6742
10955.5000     2.5088   115.0000    83.1233      .4150     1.6830
10956.0000     2.4823   114.0000    82.5392      .4212     1.6634
10956.5000     2.4339   113.0000    83.4542      .4178     1.6392
10957.0000     2.4024   113.0000    87.0002      .4385     1.6412
10957.5000     2.4021   113.0000    86.3287      .4328     1.6391
10958.0000     2.4269   112.0000    83.9647      .4545     1.6915
10958.5000     2.4609   112.0000    82.6591      .4213     1.7384
10959.0000     2.4851   112.0000    82.1145      .4056     1.7477
10959.5000     2.4684   112.0000    85.8013      .3864     1.7910
10960.0000     2.4473   113.0000    86.8676      .3999     1.7825
10960.5000     2.4300   113.0000    87.6561      .3954     1.7153
10961.0000     2.4238   114.0000    88.7827      .3678     1.7215
10961.5000     2.4214   113.0000    88.4833      .3802     1.7171
10962.0000     2.4173   112.0000    89.9844      .3973     1.7137
10962.5000     2.4257   111.0000    90.0456      .4390     1.7545
10963.0000     2.4439   111.0000    90.7794      .4253     1.7986
10963.5000     2.4610   111.0000    90.1302      .4045     1.8790
10964.0000     2.4602   111.0000    92.3837      .3917     1.8726
10964.5000     2.4552   111.0000    92.3940      .3778     1.7427
10965.0000     2.4468   112.0000    89.9147      .4010     1.6092
10965.5000     2.4415   112.0000    86.3992      .4017     1.6301
10966.0000     2.4301   111.0000    86.8532      .4099     1.6845
10966.5000     2.4317   110.0000    87.1031      .4064     1.8298
10967.0000     2.4437   109.0000    87.3702      .3985     1.8461
10967.5000     2.4584   108.0000    88.2331      .3916     1.8580
10968.0000     2.4614   106.0000    91.2455      .3983     1.9034
10968.5000     2.4543   103.0000    91.7204      .3911     1.9441
10969.0000     2.4478   100.0000    91.7490      .4042     2.4304
10969.5000     2.4578    97.2160    89.1623      .3634     4.0441
10970.0000     2.4580    94.2350    86.1053      .3398     4.5001
10970.5000     2.4282    91.8260    59.8551      .2767     5.1995
10971.0000     2.3707    91.5770    38.7274      .2188     5.2974
