~VERSION INFORMATION
VERS.                                                 2.0:   CWLS Log ASCII Standard-VERSION 2.0
WRAP.                                                  NO:   One line per depth step
~Well Information Block
STRT.F                                          3712.5000:   Top Depth
STOP.F                                         13707.5000:   Bottom Depth
STEP.F                                             .50000:   Depth Increment
NULL.                                            -999.250:   Null Value
FLD .                                             FREEMAN:   Field Name
WELL.                                         FREEMAN-001:   NAME
CTRY.                                                 NIG:   COUNTRY
COMP.                                                SPDC:   OPERATOR
SPUD.                                          1995/09/27:   SPUD DATE
UWBI.                                      40000000257301:   UWBI
~PARAMETER INFORMATION (log)
LNAM.                                              PUBLIC:   NAME
LTYP.                                         INTERPRETED:   LOG TYPE
LSRV.                                          EVALUATION:   SERVICE
LSOU.                                             TECHLOG:   LOG SOURCE
LVSN.                                                   1:   LOG VERSION
BHIS.                                                  RC:   BRIEF HISTORY
FHIS.                                     RAW-LAS/PUBLISH:   FULL HISTORY
CN  .                                              SNEPCO:   OPERATOR
~Curve Information Block
#MNEM.UNIT                                        API CODE    No Description
#=========                                        ========    == ===========
DEPT.F     FT. MD                            00 001 00 00:     1  DEPTH
DEN.G/CC                                                 :     2  Bulk Density
DT.US/F                                                  :     3  Sonic (Compressional)         Compressional sonic
GR.API                                                   :     4  Gamma Ray
NEUT.FRAC                                                :     5  Neutron Porosity
RES_DEP.OHMM                                             :     6  Resistivity Deep              Deep resistivity. RSN_01<5433> ATR_J <65
~ASCII
# ...
 8104.5000     2.0814   145.5125    52.5013      .4385   110.5906
 8105.0000     2.0955   145.6478    53.1703      .4520    89.0432
 8105.5000     2.0877   145.4919    50.3430      .4181    66.5083
 8106.0000     2.0704   145.2685    49.8060      .4047    36.4643
 8106.5000     2.0634   145.1254    49.9029      .4436    25.2921
 8107.0000     2.0741   145.1039    48.8050      .4505    18.6619
 8107.5000     2.0859   145.5018    51.0746      .4758     9.6644
 8108.0000     2.1194   146.6776    53.2097      .4335     6.2069
 8108.5000     2.1483   148.1582    53.5199      .4605     5.5790
 8109.0000     2.1435   149.5279    55.5837      .4473     5.4330
 8109.5000     2.1044   151.0715    53.7084      .4526     6.0748
 8110.0000     2.0923   152.3771    55.8830      .4539     7.7830
 8110.5000     2.0952   152.7922    57.7777      .4484     8.6501
 8111.0000     2.0866   152.3783    54.8875      .4329     9.9948
 8111.5000     2.0506   151.6430    48.6332      .4035    19.7330
 8112.0000     2.0214   150.8580    48.3609      .3986    65.2735
 8112.5000     2.0273   150.0904    47.4033      .3971   192.9659
 8113.0000     2.0317   149.5513    49.2986      .4017   245.5499
 8113.5000     2.0451   149.2310    49.5864      .3928   253.6290
 8114.0000     2.0484   149.0364    48.5661      .4033   244.4230
 8114.5000     2.0496   148.8747    47.5778      .4137   200.3467
 8115.0000     2.0373   148.6377    47.2807      .4190   175.6605
 8115.5000     2.0180   148.3881    46.4506      .4213   156.8230
 8116.0000     2.0001   147.9604    47.6651      .4074   140.6828
 8116.5000     1.9934   147.3975    48.7013      .3904   136.0485
 8117.0000     2.0128   147.0875    46.7469      .3894   135.9502
 8117.5000     2.0305   147.3063    46.5211      .3848   135.6177
 8118.0000     2.0432   148.1276    48.4336      .3804   137.0717
 8118.5000     2.0511   149.1339    48.2093      .3596   142.0948
 8119.0000     2.0406   149.9172    46.7869      .3616   142.7373
 8119.5000     2.0263   150.4776    46.8857      .3802   146.4258
 8120.0000     2.0173   150.5096    47.6996      .3714   159.1010
 8120.5000     2.0234   149.8821    50.4050      .3608   166.0489
 8121.0000     2.0276   149.0858    49.1033      .3516   179.7871
 8121.5000     2.0254   148.3669    49.0985      .3525   180.7602
 8122.0000     2.0264   147.8983    47.7361      .3657   177.5729
 8122.5000     2.0278   148.1339    46.2555      .3575   165.1462
 8123.0000     2.0355   148.9520    46.5413      .3594   114.8447
 8123.5000     2.0349   149.8822    45.7844      .3576    88.2722
 8124.0000     2.0346   150.9471    46.8794      .3630    84.8446
 8124.5000     2.0326   152.2336    45.9890      .3821    62.1090
 8125.0000     2.0361   153.2862    47.3304      .3974    41.3133
 8125.5000     2.0378   153.5976    56.8320      .4117    31.2696
 8126.0000     2.0423   153.1311    57.0488      .4199    24.9802
 8126.5000     2.0368   152.2731    54.7161      .4058    22.7101
 8127.0000     2.0405   151.2911    51.8915      .4321    28.6097
 8127.5000     2.0294   149.9780    51.2617      .4212    36.7891
 8128.0000     2.0369   148.6220    49.2770      .4361    53.3608
 8128.5000     2.0436   147.6527    48.4240      .4105    91.6413
 8129.0000     2.0609   147.2999    44.6051      .3806   178.7890
 8129.5000     2.0610   147.7503    44.9231      .3516   203.1066
 8130.0000     2.0715   148.4016    48.4168      .3374   198.9298
 8130.5000     2.0817   148.1439    49.0298      .3552   196.5791
 8131.0000     2.0931   147.0882    48.3856      .3299   186.8065
 8131.5000     2.0802   146.5476    49.7607      .3490   173.3663
 8132.0000     2.0625   146.7298    50.1084      .3647   172.0349
 8132.5000     2.0400   146.7359    47.2603      .3990   180.9039
 8133.0000     2.0348   146.4699    46.2174      .3975   181.7417
 8133.5000     2.0345   146.0010    48.0592      .3836   203.8819
 8134.0000     2.0411   145.2676    48.2466      .3814   216.4820
 8134.5000     2.0523   144.6854    49.9428      .3476   209.9538
 8135.0000     2.0671   144.8473    48.8353      .3554   200.8594
 8135.5000     2.0764   145.4435    49.9865      .3665   182.4701
 8136.0000     2.0737   145.0682    51.2449      .3929   148.4610
 8136.5000     2.0531   143.1950    50.5067      .3960   112.5036
 8137.0000     2.0402   140.5159    49.4479      .3810    94.9579
 8137.5000     2.0412   137.7032    48.9563      .3739    82.7507
 8138.0000     2.0501   135.5718    50.4286      .3683    61.8133
 8138.5000     2.0728   134.3402    50.5553      .3704    46.7918
 8139.0000     2.0927   133.7968    49.9897      .3794    34.7988
 8139.5000     2.0973   133.8645    51.1090      .3883    15.9507
 8140.0000     2.1003   134.2343    50.8089      .4102     7.0433
 8140.5000     2.1139   134.1972    57.1270      .4276     4.7729
 8141.0000     2.1511   133.7302    60.0564      .4021     3.8413
 8141.5000     2.1824   133.3069    65.5229      .4124     3.2393
 8142.0000     2.2045   133.4945    69.1766      .3892     2.8137
 8142.5000     2.2447   135.1277    72.9396      .4407     2.4932
 8143.0000     2.2973   137.8115    73.4379      .4370     2.5564
 8143.5000     2.3233   140.0507    71.3167      .4388     2.9370
 8144.0000     2.2690   141.0829    64.1845      .3842     3.5904
 8144.5000     2.1996   140.7824    56.5253      .3540     5.9308
 8145.0000     2.1471   139.6474    48.6098      .3418     8.1123
 8145.5000     2.1237   138.6775    46.7550      .3582     6.9221
 8146.0000     2.0963   138.0370    45.6663      .3659     4.9003
 8146.5000     2.1030   138.1832    52.5847      .3849     4.2815
 8147.0000     2.1192   139.1782    61.5264      .3945     3.7169
 8147.5000     2.1530   140.3315    60.5635      .4209     3.6966
 8148.0000     2.1447   141.3617    62.0488      .4201     4.4072
 8148.5000     2.1212   141.9802    60.9616      .3967     5.2474
 8149.0000     2.1038   142.5645    52.4382      .3759     7.8833
 8149.5000     2.0933   143.2812    49.6971      .3786    16.8534
 8150.0000     2.0637   143.7268    48.9078      .3986    38.0568
 8150.5000     2.0044   143.8656    46.8580      .3812    66.9272
 8151.0000     1.9573   143.9635    46.7658      .3828    95.9877
 8151.5000     1.9370   144.4157    45.7979      .3779   140.0785
 8152.0000     1.9460   144.9706    44.9419      .3822   130.2298
 8152.5000     1.9506   144.6452    44.8417      .3668   104.9880
 8153.0000     1.9555   143.6634    46.2924      .3507    88.1880
 8153.5000     1.9645   142.9322    46.8296      .3655    74.8256
 8154.0000     1.9772   142.2646    47.1947      .3756    62.5862
 8154.5000     1.9920   141.4828    48.3085      .4231    52.8224
 8155.0000     2.0077   140.6085    48.6099      .4306    29.0367
 8155.5000     2.0309   138.9706    48.4794      .4441     9.5522
 8156.0000     2.0527   136.8285    48.1540      .4392     7.0355
 8156.5000     2.0785   135.3768    51.6438      .4404     4.7888
 8157.0000     2.1018   134.6406    52.0481      .4535     3.0173
 8157.5000     2.1287   134.2348    52.2970      .4467     2.5945
 8158.0000     2.1644   134.0472    53.3234      .4604     2.3027
 8158.5000     2.2279   133.9019    55.1120      .4846     2.0391
 8159.0000     2.2804   133.5174    66.5472      .4909     1.8979
 8159.5000     2.3091   133.0374    68.0495      .5019     1.9281
 8160.0000     2.2915   132.8295    69.9554      .4965     2.1047
 8160.5000     2.2771   132.7758    69.8937      .5300     2.1433
 8161.0000     2.2737   132.3262    70.2253      .5400     2.1448
 8161.5000     2.2860   131.4236    68.4032      .5041     2.1868
 8162.0000     2.2956   130.4134    67.6566      .4871     2.2395
 8162.5000     2.2913   129.6234    65.5366      .4868     2.3386
 8163.0000     2.2643   129.7015    64.1087      .4945     2.4523
 8163.5000     2.2455   131.3525    62.1439      .4618     2.5714
 8164.0000     2.2079   134.1039    60.6143      .4353     2.8344
 8164.5000     2.1695   135.7486    59.7954      .4214     3.2793
 8165.0000     2.1315   135.0795    58.5456      .4362     3.4952
