~VERSION INFORMATION
VERS.                                                 2.0:   CWLS Log ASCII Standard-VERSION 2.0
WRAP.                                                  NO:   One line per depth step
~Well Information Block
STRT.F                                          3712.5000:   Top Depth
STOP.F                                         13707.5000:   Bottom Depth
STEP.F                                             .50000:   Depth Increment
NULL.                                            -999.250:   Null Value
FLD .                                             FREEMAN:   Field Name
WELL.                                         FREEMAN-001:   NAME
CTRY.                                                 NIG:   COUNTRY
COMP.                                                SPDC:   OPERATOR
SPUD.                                          1995/09/27:   SPUD DATE
UWBI.                                      40000000257301:   UWBI
~PARAMETER INFORMATION (log)
LNAM.                                              PUBLIC:   NAME
LTYP.                                         INTERPRETED:   LOG TYPE
LSRV.                                          EVALUATION:   SERVICE
LSOU.                                             TECHLOG:   LOG SOURCE
LVSN.                                                   1:   LOG VERSION
BHIS.                                                  RC:   BRIEF HISTORY
FHIS.                                     RAW-LAS/PUBLISH:   FULL HISTORY
CN  .                                              SNEPCO:   OPERATOR
~Curve Information Block
#MNEM.UNIT                                        API CODE    No Description
#=========                                        ========    == ===========
DEPT.F     FT. MD                            00 001 00 00:     1  DEPTH
DEN.G/CC                                                 :     2  Bulk Density
DT.US/F                                                  :     3  Sonic (Compressional)         Compressional sonic
GR.API                                                   :     4  Gamma Ray
NEUT.FRAC                                                :     5  Neutron Porosity
RES_DEP.OHMM                                             :     6  Resistivity Deep              Deep resistivity. RSN_01<5433> ATR_J <65
~ASCII
# ...
 7006.5000     2.0056   146.0491    63.8638      .5569     1.5771
 7007.0000     1.9971   146.7940    61.1592      .5550     1.5386
 7007.5000     1.9801   147.3243    65.5922      .5531     1.5238
 7008.0000     1.9775   148.0994    63.0112      .5670     1.5848
 7008.5000     2.0012   148.7870    64.2471      .5729     1.6800
 7009.0000     2.0531   148.6116    63.2652      .5363     1.6945
 7009.5000     2.0828   147.3047    65.3326      .5470     1.7077
 7010.0000     2.0940   146.1902    64.7315      .5554     1.7292
 7010.5000     2.0752   146.6509    65.0120      .5717     1.6947
 7011.0000     2.0711   148.1464    65.3446      .5411     1.6359
 7011.5000     2.0968   149.5528    66.7861      .5089     1.6386
 7012.0000     2.1201   150.4185    68.6122      .4894     1.6474
 7012.5000     2.1108   151.6152    67.9240      .5227     1.5905
 7013.0000     2.0987   153.3470    68.9409      .5548     1.5246
 7013.5000     2.1038   154.4778    71.5853      .5447     1.5250
 7014.0000     2.1082   154.3881    71.6303      .5351     1.5128
 7014.5000     2.1189   153.3152    73.1214      .5349     1.5271
 7015.0000     2.1246   152.8143    70.3808      .5743     1.4935
 7015.5000     2.1133   153.9403    70.1458      .5458     1.4457
 7016.0000     2.0925   155.8888    69.3367      .5293     1.3695
 7016.5000     2.0825   156.8586    70.8572      .4973     1.3594
 7017.0000     2.0815   155.2137    72.6699      .5230     1.4002
 7017.5000     2.0865   151.7276    71.8220      .5295     1.5155
 7018.0000     2.0862   149.0109    70.3067      .5101     1.5857
 7018.5000     2.0870   148.0393    68.4915      .5020     1.6895
 7019.0000     2.0870   148.0894    70.2785      .4976     1.7618
 7019.5000     2.0961   149.1022    69.7568      .5153     1.7075
 7020.0000     2.0971   151.7847    70.2269      .5346     1.6767
 7020.5000     2.0972   155.0800    69.9122      .5087     1.5573
 7021.0000     2.0885   156.3091    68.1519      .5426     1.4770
 7021.5000     2.0840   154.8810    66.6466      .5188     1.3748
 7022.0000     2.0930   152.7639    65.4111      .5396     1.3396
 7022.5000     2.0906   151.5368    63.5620      .5007     1.3013
 7023.0000     2.0586   150.6930    63.0371      .5107     1.3343
 7023.5000     2.0399   150.2549    63.1257      .5166     1.3387
 7024.0000     2.0064   151.1552    63.2700      .5338     1.3453
 7024.5000     1.9918   153.1674    66.3450      .5309     1.4176
 7025.0000     1.9945   154.9697    68.8559      .5290     1.4147
 7025.5000     2.0153   155.8716    67.3199      .5288     1.4527
 7026.0000     2.0430   156.4564    63.4939      .5120     1.4321
 7026.5000     2.0605   157.1442    64.8138      .5167     1.4233
 7027.0000     2.0309   156.9658    63.3347      .5057     1.3552
 7027.5000     2.0153   155.1903    63.4643      .5249     1.3451
 7028.0000     2.0116   153.2219    60.6347      .5170     1.3606
 7028.5000     1.9810   151.9687    61.1415      .5173     1.3797
 7029.0000     1.9481   150.4634    60.0437      .5200     1.4350
 7029.5000     1.9401   148.4279    59.8481      .5277     1.4615
 7030.0000     1.9765   146.3904    62.7899      .5106     1.5533
 7030.5000     2.0388   144.5629    63.2204      .5281     1.6008
 7031.0000     2.0589   144.0460    64.2542      .5206     1.6432
 7031.5000     2.0523   145.6356    66.4711      .5158     1.6172
 7032.0000     2.0438   148.6370    62.9651      .5143     1.5458
 7032.5000     2.0361   151.3703    61.5488      .4871     1.5718
 7033.0000     2.0327   152.4862    62.3100      .4984     1.5299
 7033.5000     1.9484   153.1086    60.0812      .4872     1.5482
 7034.0000     1.8700   153.3519    63.0178      .5037     1.6133
 7034.5000     1.8603   153.5388    64.7814      .5080     1.5992
 7035.0000     1.9420   153.4368    63.4377      .4952     1.6375
 7035.5000     2.0302   149.8127    62.2599      .5007     1.6258
 7036.0000     2.0745   144.9421    61.5169      .5447     1.6426
 7036.5000     2.0847   143.1635    60.2468      .5601     1.6377
 7037.0000     2.0850   143.2109    61.4020      .5463     1.6167
 7037.5000     2.0847   143.8429    61.6231      .5055     1.6379
 7038.0000     2.0245   146.2480    57.9603      .5240     1.5810
 7038.5000     1.9948   149.8861    59.9501      .5477     1.5594
 7039.0000     1.9947   151.7938    59.2967      .5524     1.5027
 7039.5000     2.0159   150.8387    58.4629      .5298     1.5295
 7040.0000     2.0235   149.3171    59.5493      .5412     1.5271
 7040.5000     2.0140   149.8597    59.2759      .5294     1.6050
 7041.0000     2.0052   152.7587    59.5016      .5499     1.6127
 7041.5000     2.0416   155.5463    61.6794      .5236     1.6705
 7042.0000     2.1087   156.1044    63.9788      .5214     1.7070
 7042.5000     2.1284   155.1546    63.4811      .5386     1.7297
 7043.0000     2.0821   153.8032    65.5717      .4903     1.7132
 7043.5000     2.0426   152.5537    63.8367      .4456     1.7201
 7044.0000     2.0332   151.7430    66.1035      .4534     1.6747
 7044.5000     1.9932   152.2085    66.8933      .5001     1.6024
 7045.0000     1.9186   153.1089    69.2177      .5296     1.5603
 7045.5000     1.8506   152.5454    69.6281      .5722     1.5358
 7046.0000     1.8479   151.7574    68.8764      .5622     1.5919
 7046.5000     1.9237   151.9778    70.7588      .5402     1.5849
 7047.0000     2.0309   151.5511    72.7583      .5192     1.6357
 7047.5000     2.0250   150.3414    72.0904      .4997     1.6622
 7048.0000     1.9964   150.0435    70.1779      .4892     1.7119
 7048.5000     1.9665   150.1525    70.8935      .4738     1.7072
 7049.0000     1.9094   149.6749    68.5128      .4889     1.6561
 7049.5000     1.8754   149.0193    66.4800      .5395     1.6262
 7050.0000     1.8629   148.3652    66.6555      .5303     1.5783
 7050.5000     1.8872   147.6030    88.9235      .5766     1.5563
 7051.0000     1.8352   147.0295    86.8866      .5633     1.5417
 7051.5000     1.7600   146.9484    87.8149      .5730     1.5898
 7052.0000     1.7659   147.7261    89.1730      .5476     1.5810
 7052.5000     1.8474   149.8902    91.2470      .5330     1.5708
 7053.0000     1.9912   152.3507    93.3860      .5198     1.6244
 7053.5000     2.0006   153.7366    93.6410      .5020     1.6109
 7054.0000     1.9954   154.6484    93.6331      .5022     1.6625
 7054.5000     1.9510   155.3596    89.9669      .5246     1.6044
 7055.0000     1.9044   154.8093    87.4268      .5414     1.5974
 7055.5000     1.8864   152.5903    87.3996      .5406     1.6029
 7056.0000     1.8968   149.9613    91.1181      .5480     1.5609
 7056.5000     1.9155   148.1903    90.7574      .5731     1.6129
 7057.0000     1.9382   147.3583    89.6046      .5786     1.6281
 7057.5000     1.9781   146.5954    90.4181      .5577     1.6447
 7058.0000     1.9554   146.4851    88.1453      .4989     1.6093
 7058.5000     1.9096   147.9231    88.7841      .5380     1.6657
 7059.0000     1.8894   149.7994    86.9807      .4984     1.6577
 7059.5000     1.9059   151.1108    88.7868      .5363     1.5959
 7060.0000     1.9343   151.6284    89.4592      .5005     1.6061
 7060.5000     1.9603   150.7000    80.7517      .5629     1.5518
 7061.0000     1.9779   149.1953    85.2682      .5224     1.5559
 7061.5000     1.9311   148.1070    89.5391      .5061     1.5773
 7062.0000     1.9567   147.6477    88.2512      .4679     1.6069
 7062.5000     1.9802   148.2158    86.7312      .5034     1.6005
 7063.0000     2.0136   149.1862    86.4394      .5088     1.6115
 7063.5000     2.0100   149.5332    86.3511      .5459     1.6181
 7064.0000     1.9917   149.5361    86.1446      .5755     1.5828
 7064.5000     1.9860   149.5023    86.5699      .5791     1.5801
 7065.0000     1.9617   149.0125    90.2443      .5764     1.5814
 7065.5000     1.9580   148.1725    83.9568      .5384     1.6243
 7066.0000     1.9920   147.1862    89.6160      .5663     1.5997
 7066.5000     2.0421   146.1651    88.2797      .5231     1.6284
 7067.0000     2.0608   145.7081    90.2522      .5284     1.5911
