~VERSION INFORMATION
VERS.                                                 2.0:   CWLS Log ASCII Standard-VERSION 2.0
WRAP.                                                  NO:   One line per depth step
~Well Information Block
STRT.F                                          3712.5000:   Top Depth
STOP.F                                         13707.5000:   Bottom Depth
STEP.F                                             .50000:   Depth Increment
NULL.                                            -999.250:   Null Value
FLD .                                             FREEMAN:   Field Name
WELL.                                         FREEMAN-001:   NAME
CTRY.                                                 NIG:   COUNTRY
COMP.                                                SPDC:   OPERATOR
SPUD.                                          1995/09/27:   SPUD DATE
UWBI.                                      40000000257301:   UWBI
~PARAMETER INFORMATION (log)
LNAM.                                              PUBLIC:   NAME
LTYP.                                         INTERPRETED:   LOG TYPE
LSRV.                                          EVALUATION:   SERVICE
LSOU.                                             TECHLOG:   LOG SOURCE
LVSN.                                                   1:   LOG VERSION
BHIS.                                                  RC:   BRIEF HISTORY
FHIS.                                     RAW-LAS/PUBLISH:   FULL HISTORY
CN  .                                              SNEPCO:   OPERATOR
~Curve Information Block
#MNEM.UNIT                                        API CODE    No Description
#=========                                        ========    == ===========
DEPT.F     FT. MD                            00 001 00 00:     1  DEPTH
DEN.G/CC                                                 :     2  Bulk Density
DT.US/F                                                  :     3  Sonic (Compressional)         Compressional sonic
GR.API                                                   :     4  Gamma Ray
NEUT.FRAC                                                :     5  Neutron Porosity
RES_DEP.OHMM                                             :     6  Resistivity Deep              Deep resistivity. RSN_01<5433> ATR_J <65
~ASCII
# ...
10361.5000     2.4050   117.2054    70.3445      .4368     1.2915
10362.0000     2.3847   117.1793    70.3280      .4134     1.2393
10362.5000     2.3796   117.1531    70.1705      .3902     1.1913
10363.0000     2.3756   117.1269    72.2253      .3717     1.1457
10363.5000     2.3546   117.1008    71.9034      .3787     1.0880
10364.0000     2.3363   117.0746    70.5351      .4146     1.0583
10364.5000     2.3356   117.0484    69.1726      .4600     1.0467
10365.0000     2.3626   117.0223    72.5366      .4729     1.0400
10365.5000     2.3776   116.9961    73.0961      .4359     1.1039
10366.0000     2.3748   116.9700    72.6566      .4039     1.1416
10366.5000     2.3756   116.9438    71.2890      .4132     1.1528
10367.0000     2.3728   116.9176    71.3221      .4341     1.1668
10367.5000     2.3695   116.8915    69.4950      .4684     1.1763
10368.0000     2.3695   116.8653    67.6688      .4430     1.1923
10368.5000     2.3611   116.8391    65.4093      .4394     1.1977
10369.0000     2.3568   116.8130    62.8973      .4035     1.1773
10369.5000     2.3470   116.7868    64.8676      .4184     1.1384
10370.0000     2.3440   116.7606    65.9098      .4264     1.1083
10370.5000     2.3598   116.7345    62.3847      .4465     1.0956
10371.0000     2.3813   116.7083    62.5971      .4483     1.0966
10371.5000     2.3765   116.6821    61.6508      .4666     1.0987
10372.0000     2.3643   116.6560    61.8468      .4666     1.1016
10372.5000     2.3718   116.6298    60.1641      .4701     1.1174
10373.0000     2.3726   116.6037    59.3343      .4534     1.1355
10373.5000     2.3749   116.5775    56.7292      .4442     1.1316
10374.0000     2.3733   116.5513    56.6993      .4453     1.1191
10374.5000     2.3747   116.5252    56.6694      .4523     1.1104
10375.0000     2.3769   116.4990    56.6396      .4554     1.1102
10375.5000     2.3860   116.4728    56.6097      .4266     1.1236
10376.0000     2.4008   116.4467    56.5798      .4054     1.1450
10376.5000     2.3984   116.4205    56.5499      .3801     1.1597
10377.0000     2.3821   116.3943    56.5201      .3902     1.1688
10377.5000     2.3649   116.3682    56.4902      .3742     1.1696
10378.0000     2.3526   116.3420    56.4604      .4185     1.1733
10378.5000     2.3488   116.3158    56.4305      .4017     1.1942
10379.0000     2.3523   116.2897    56.4006      .4285     1.2111
10379.5000     2.3598   116.2635    56.3707      .3880     1.2226
10380.0000     2.3779   116.2374    56.3409      .3992     1.2318
10380.5000     2.3949   116.2112    56.3110      .3945     1.2450
10381.0000     2.4059   116.1850    56.2811      .4311     1.2580
10381.5000     2.3969   116.1589    56.2513      .4605     1.2747
10382.0000     2.3558   116.1327    56.2214      .4939     1.2656
10382.5000     2.3044   116.1065    56.1915      .4912     1.2262
10383.0000     2.2942   116.0804    56.1617      .4751     1.1496
10383.5000     2.3121   116.0542    56.1318      .4551     1.1634
10384.0000     2.3222   116.0280    56.1019      .4425     1.1961
10384.5000     2.3414   116.0019    56.0721      .4518     1.2078
10385.0000     2.3474   115.9757    56.0422      .4704     1.2101
10385.5000     2.3250   115.9495    56.0123      .4734     1.2110
10386.0000     2.3084   115.9234    55.9825      .4862     1.1431
10386.5000     2.2994   115.8972    55.9526      .4606     1.1328
10387.0000     2.3033   115.8710    55.9227      .4504     1.1482
10387.5000     2.3158   115.8449    55.8929      .4504     1.1594
10388.0000     2.3323   115.8187    55.8630      .4314     1.1479
10388.5000     2.3242   115.7925    55.8331      .4470     1.1279
10389.0000     2.3330   115.7664    55.8032      .4246     1.1124
10389.5000     2.3561   115.7402    55.7734      .4423     1.0827
10390.0000     2.3608   115.7141    55.7435      .4577     1.0688
10390.5000     2.3371   115.6879    55.7136      .4779     1.0662
10391.0000     2.3245   115.6617    55.6838      .4640     1.0649
10391.5000     2.3418   115.6356    55.6539      .4423     1.0537
10392.0000     2.3627   115.6094    55.6241      .4360     1.0428
10392.5000     2.3799   115.5832    55.5942      .4541     1.0632
10393.0000     2.3649   115.5571    55.5643      .4505     1.0624
10393.5000     2.3432   115.5309    55.5344      .4191     1.0742
10394.0000     2.3340   115.5047    55.5046      .3896     1.0800
10394.5000     2.3436   115.4786    55.4747      .3700     1.0838
10395.0000     2.3684   115.4524    55.4448      .3700     1.0984
10395.5000     2.3759   115.4262    55.4150      .3700     1.1209
10396.0000     2.3725   115.4001    55.3851      .3700     1.1303
10396.5000     2.3618   115.3739    55.3552      .3700     1.1518
10397.0000     2.3541   115.3478    55.3254      .3700     1.1573
10397.5000     2.3528   115.3216    55.2955      .3700     1.1571
10398.0000     2.3579   115.2954    55.2656      .3700     1.1556
10398.5000     2.3629   115.2693    55.2358      .3700     1.1456
10399.0000     2.3653   115.2431    55.2059      .3700     1.1132
10399.5000     2.3816   115.2169    55.1760      .3700     1.0881
10400.0000     2.4040   115.1908    55.1462      .3700     1.0870
10400.5000     2.4156   115.1646    55.1163      .3700     1.0991
10401.0000     2.4004   115.1384    55.0864      .3700     1.1138
10401.5000     2.3831   115.1123    55.0566      .3700     1.1431
10402.0000     2.3748   115.0861    55.0267      .3700     1.1647
10402.5000     2.3870   115.0599    54.9968      .3700     1.1834
10403.0000     2.3956   115.0338    54.9669      .3700     1.2191
10403.5000     2.3955   115.0076    54.9371      .3700     1.2366
10404.0000     2.3955   114.9815    54.9072      .3700     1.2412
10404.5000     2.3955   114.9553    54.8773      .3700     1.2357
10405.0000     2.3954   114.9291    54.8475      .3700     1.2314
10405.5000     2.3954   114.9030    54.8176      .3700     1.2210
10406.0000     2.3953   114.8768    54.7878      .3700     1.2199
10406.5000     2.3953   114.8506    54.7579      .3700     1.2292
10407.0000     2.3952   114.8245    54.7280      .3700     1.2282
10407.5000     2.3952   114.7983    54.6981      .3700     1.2195
10408.0000     2.3952   114.7721    54.6683      .3700     1.2087
10408.5000     2.3951   114.7460    54.6384      .3700     1.1959
10409.0000     2.3951   114.7198    54.6085      .3700     1.1880
10409.5000     2.3950   114.6936    54.5787      .3700     1.2008
10410.0000     2.3950   114.6675    54.5488      .3700     1.2003
10410.5000     2.3950   114.6413    54.5189      .3700     1.1820
10411.0000     2.3949   114.6152    54.4891      .3700     1.2084
10411.5000     2.3949   114.5890    54.4592      .3700     1.2312
10412.0000     2.3948   114.5628    54.4293      .3700     1.3039
10412.5000     2.3948   114.5367    53.3662      .3700     1.3481
10413.0000     2.3948   114.5105    54.1083      .3700     1.2203
10413.5000     2.3947   114.4843    55.4028      .3700     1.1060
10414.0000     2.3947   114.4582    52.0097      .3700     1.0860
10414.5000     2.3946   114.4320    55.5096      .3700     1.0157
10415.0000     2.3946   114.4058    54.2816      .3700      .9767
10415.5000     2.3946   114.3797    54.8335      .3700      .9919
10416.0000     2.3945   114.3535    53.7280      .3700     1.0448
10416.5000     2.3945   114.3273    53.8755      .3700     1.1354
10417.0000     2.3944   114.3012    56.3546      .3700     1.1751
10417.5000     2.3944   114.2750    55.9641      .3700     1.2075
10418.0000     2.3943   114.2488    56.8717      .3700     1.2273
10418.5000     2.3943   114.2227    54.9422      .3700     1.2348
10419.0000     2.3943   114.1965    56.0520      .3700     1.2616
10419.5000     2.3942   114.1703    54.8279      .3700     1.2611
10420.0000     2.3942   114.1442    56.0971      .4635     1.2423
10420.5000     2.3941   114.1180    53.3364      .4831     1.2268
10421.0000     2.3941   114.0919    57.9967      .5032     1.2059
10421.5000     2.3941   114.0657    58.0420      .5051     1.2299
10422.0000     2.3940   114.0395    55.7315      .4873     1.2389
