~VERSION INFORMATION
VERS.                                                 2.0:   CWLS Log ASCII Standard-VERSION 2.0
WRAP.                                                  NO:   One line per depth step
~Well Information Block
STRT.F                                          3712.5000:   Top Depth
STOP.F                                         13707.5000:   Bottom Depth
STEP.F                                             .50000:   Depth Increment
NULL.                                            -999.250:   Null Value
FLD .                                             FREEMAN:   Field Name
WELL.                                         FREEMAN-001:   NAME
CTRY.                                                 NIG:   COUNTRY
COMP.                                                SPDC:   OPERATOR
SPUD.                                          1995/09/27:   SPUD DATE
UWBI.                                      40000000257301:   UWBI
~PARAMETER INFORMATION (log)
LNAM.                                              PUBLIC:   NAME
LTYP.                                         INTERPRETED:   LOG TYPE
LSRV.                                          EVALUATION:   SERVICE
LSOU.                                             TECHLOG:   LOG SOURCE
LVSN.                                                   1:   LOG VERSION
BHIS.                                                  RC:   BRIEF HISTORY
FHIS.                                     RAW-LAS/PUBLISH:   FULL HISTORY
CN  .                                              SNEPCO:   OPERATOR
~Curve Information Block
#MNEM.UNIT                                        API CODE    No Description
#=========                                        ========    == ===========
DEPT.F     FT. MD                            00 001 00 00:     1  DEPTH
DEN.G/CC                                                 :     2  Bulk Density
DT.US/F                                                  :     3  Sonic (Compressional)         Compressional sonic
GR.API                                                   :     4  Gamma Ray
NEUT.FRAC                                                :     5  Neutron Porosity
RES_DEP.OHMM                                             :     6  Resistivity Deep              Deep resistivity. RSN_01<5433> ATR_J <65
~ASCII
# ...
 5359.5000  -999.2500  -999.2500    18.7700  -999.2500     1.3933
 5360.0000  -999.2500  -999.2500    18.4067  -999.2500     1.3733
 5360.5000  -999.2500  -999.2500    17.3233  -999.2500     1.3667
 5361.0000  -999.2500  -999.2500    16.2400  -999.2500     1.3767
 5361.5000  -999.2500  -999.2500    16.9633  -999.2500     1.3500
 5362.0000  -999.2500  -999.2500    18.4100  -999.2500     1.3100
 5362.5000  -999.2500  -999.2500    19.8567  -999.2500     1.3000
 5363.0000  -999.2500  -999.2500    20.5800  -999.2500     1.3200
 5363.5000  -999.2500  -999.2500    19.4967  -999.2500     1.3600
 5364.0000  -999.2500  -999.2500    18.4133  -999.2500     1.3733
 5364.5000  -999.2500  -999.2500    17.3300  -999.2500     1.3600
 5365.0000  -999.2500  -999.2500    17.6911  -999.2500     1.3233
 5365.5000  -999.2500  -999.2500    18.4133  -999.2500     1.3100
 5366.0000  -999.2500  -999.2500    19.4967  -999.2500     1.3233
 5366.5000  -999.2500  -999.2500    20.2189  -999.2500     1.3400
 5367.0000  -999.2500  -999.2500    19.1333  -999.2500     1.3467
 5367.5000  -999.2500  -999.2500    17.6867  -999.2500     1.3433
 5368.0000  -999.2500  -999.2500    16.2400  -999.2500     1.3300
 5368.5000  -999.2500  -999.2500    16.4217  -999.2500     1.3200
 5369.0000  -999.2500  -999.2500    16.7850  -999.2500     1.3100
 5369.5000  -999.2500  -999.2500    17.8683  -999.2500     1.3100
 5370.0000  -999.2500  -999.2500    18.5900  -999.2500     1.3150
 5370.5000  -999.2500  -999.2500    18.9500  -999.2500     1.3250
 5371.0000  -999.2500  -999.2500    18.4100  -999.2500     1.3300
 5371.5000  -999.2500  -999.2500    17.8700  -999.2500     1.3350
 5372.0000  -999.2500  -999.2500    17.1467  -999.2500     1.3517
 5372.5000  -999.2500  -999.2500    16.9644  -999.2500     1.3500
 5373.0000  -999.2500  -999.2500    17.3233  -999.2500     1.3300
 5373.5000  -999.2500  -999.2500    18.4067  -999.2500     1.3100
 5374.0000  -999.2500  -999.2500    18.4089  -999.2500     1.3200
 5374.5000  -999.2500  -999.2500    18.0500  -999.2500     1.3400
 5375.0000  -999.2500  -999.2500    17.3300  -999.2500     1.3444
 5375.5000  -999.2500  -999.2500    17.3300  -999.2500     1.3333
 5376.0000  -999.2500  -999.2500    17.3300  -999.2500     1.3267
 5376.5000  -999.2500  -999.2500    18.4133  -999.2500     1.3156
 5377.0000  -999.2500  -999.2500    19.3150  -999.2500     1.3000
 5377.5000  -999.2500  -999.2500    20.0350  -999.2500     1.2800
 5378.0000  -999.2500  -999.2500    19.1300  -999.2500     1.2667
 5378.5000  -999.2500  -999.2500    17.8650  -999.2500     1.2600
 5379.0000  -999.2500  -999.2500    17.1450  -999.2500     1.2667
 5379.5000  -999.2500  -999.2500    17.3267  -999.2500     1.2867
 5380.0000  -999.2500  -999.2500    18.4100  -999.2500     1.3200
 5380.5000  -999.2500  -999.2500    19.3117  -999.2500     1.3400
 5381.0000  -999.2500  -999.2500    20.0350  -999.2500     1.3400
 5381.5000  -999.2500  -999.2500    19.8567  -999.2500     1.3400
 5382.0000  -999.2500  -999.2500    18.9550  -999.2500     1.3500
 5382.5000  -999.2500  -999.2500    17.6900  -999.2500     1.3700
 5383.0000  -999.2500  -999.2500    16.7850  -999.2500     1.3767
 5383.5000  -999.2500  -999.2500    16.9633  -999.2500     1.3800
 5384.0000  -999.2500  -999.2500    17.8650  -999.2500     1.3800
 5384.5000  -999.2500  -999.2500    18.9483  -999.2500     1.3800
 5385.0000  -999.2500  -999.2500    18.9483  -999.2500     1.3767
 5385.5000  -999.2500  -999.2500    17.8650  -999.2500     1.3700
 5386.0000  -999.2500  -999.2500    16.7817  -999.2500     1.3633
 5386.5000  -999.2500  -999.2500    16.2400  -999.2500     1.3600
 5387.0000  -999.2500  -999.2500    16.2400  -999.2500     1.3400
 5387.5000  -999.2500  -999.2500    16.2400  -999.2500     1.3367
 5388.0000  -999.2500  -999.2500    16.7817  -999.2500     1.3500
 5388.5000  -999.2500  -999.2500    17.8650  -999.2500     1.3800
 5389.0000  -999.2500  -999.2500    18.4067  -999.2500     1.3900
 5389.5000  -999.2500  -999.2500    17.8650  -999.2500     1.3933
 5390.0000  -999.2500  -999.2500    16.7817  -999.2500     1.4100
 5390.5000  -999.2500  -999.2500    16.2400  -999.2500     1.4300
 5391.0000  -999.2500  -999.2500    16.2400  -999.2500     1.4400
 5391.5000  -999.2500  -999.2500    16.7817  -999.2500     1.4333
 5392.0000  -999.2500  -999.2500    17.8650  -999.2500     1.4200
 5392.5000  -999.2500  -999.2500    18.4067  -999.2500     1.3900
 5393.0000  -999.2500  -999.2500    17.8650  -999.2500     1.3500
 5393.5000  -999.2500  -999.2500    16.7817  -999.2500     1.3200
 5394.0000  -999.2500  -999.2500    16.2400  -999.2500     1.3100
 5394.5000  -999.2500  -999.2500    16.2400  -999.2500     1.3200
 5395.0000  -999.2500  -999.2500    16.2400  -999.2500     1.3300
 5395.5000  -999.2500  -999.2500    16.2400  -999.2500     1.3300
 5396.0000  -999.2500  -999.2500    16.7817  -999.2500     1.3200
 5396.5000  -999.2500  -999.2500    17.8650  -999.2500     1.3044
 5397.0000  -999.2500  -999.2500    18.9483  -999.2500     1.2933
 5397.5000  -999.2500  -999.2500    19.4900  -999.2500     1.2867
 5398.0000  -999.2500  -999.2500    18.9483  -999.2500     1.3022
 5398.5000  -999.2500  -999.2500    17.8650  -999.2500     1.3400
 5399.0000  -999.2500  -999.2500    16.7817  -999.2500     1.3400
 5399.5000  -999.2500  -999.2500    16.2400  -999.2500     1.3283
 5400.0000     1.9811   160.0663    16.2400  -999.2500     1.3050
 5400.5000     1.9811   160.0663    17.3233  -999.2500     1.3300
 5401.0000     1.9811   160.0663    18.4067  -999.2500     1.3550
 5401.5000     1.9811   160.0663    19.4900  -999.2500     1.3717
 5402.0000     1.9812   160.0663    18.7683  -999.2500     1.3867
 5402.5000     1.9812   160.0663    17.3250  -999.2500     1.3978
 5403.0000     1.9812   160.0663    16.0617  -999.2500     1.4133
 5403.5000     1.9812   160.0663    15.7000  -999.2500     1.4267
 5404.0000     1.9812   160.0663    16.4217  -999.2500     1.4289
 5404.5000     1.9812   160.0663    17.3250  -999.2500     1.4200
 5405.0000     1.9812   160.0663    18.2283  -999.2500     1.4167
 5405.5000     1.9812   160.0663    18.9500  -999.2500     1.4300
 5406.0000     1.9812   160.0663    18.9489  -999.2500     1.4567
 5406.5000     1.9813   160.0663    18.4067  -999.2500     1.4800
 5407.0000     1.9813   160.0663    17.3233  -999.2500     1.5000
 5407.5000     1.9813   160.0663    16.4211  -999.2500     1.5200
 5408.0000     1.9813   160.0663    15.7000  -999.2500     1.5267
 5408.5000     1.9813   160.0663    15.3400  -999.2500     1.5200
 5409.0000     1.9813   160.0663    15.1600  -999.2500     1.5067
 5409.5000     1.9813   160.0663    15.7017  -999.2500     1.5000
 5410.0000     1.9813   160.0663    16.7850  -999.2500     1.4956
 5410.5000     1.9813   160.0663    17.3267  -999.2500     1.4867
 5411.0000     1.9813   160.0663    16.7850  -999.2500     1.4733
 5411.5000     1.9814   160.0663    16.0617  -999.2500     1.4644
 5412.0000     1.9814   160.0663    15.8800  -999.2500     1.4633
 5412.5000     1.9814   160.0663    16.2400  -999.2500     1.4700
 5413.0000     1.9814   160.0663    16.2400  -999.2500     1.4700
 5413.5000     1.9814   160.0663    16.6017  -999.2500     1.4600
 5414.0000     1.9814   160.0663    17.3250  -999.2500     1.4400
 5414.5000     1.9814   160.0663    18.0483  -999.2500     1.4133
 5415.0000     1.9814   160.0663    18.4100  -999.2500     1.3867
 5415.5000     1.9814   160.0663    18.0483  -999.2500     1.3600
 5416.0000     1.9814   160.0663    17.3250  -999.2500     1.3400
 5416.5000     1.9815   160.0663    16.6017  -999.2500     1.3200
 5417.0000     1.9815   160.0663    16.2400  -999.2500     1.3000
 5417.5000     1.9815   160.0663    16.7817  -999.2500     1.2800
 5418.0000     1.9815   160.0663    17.8650  -999.2500     1.2600
 5418.5000     1.9815   160.0663    18.9483  -999.2500     1.2400
 5419.0000     1.9815   160.0663    19.4900  -999.2500     1.2378
 5419.5000     1.9815   160.0663    18.9483  -999.2500     1.2533
 5420.0000     1.9815   160.0663    17.8650  -999.2500     1.2867
