~VERSION INFORMATION
VERS.                                                 2.0:   CWLS Log ASCII Standard-VERSION 2.0
WRAP.                                                  NO:   One line per depth step
~Well Information Block
STRT.F                                          3712.5000:   Top Depth
STOP.F                                         13707.5000:   Bottom Depth
STEP.F                                             .50000:   Depth Increment
NULL.                                            -999.250:   Null Value
FLD .                                             FREEMAN:   Field Name
WELL.                                         FREEMAN-001:   NAME
CTRY.                                                 NIG:   COUNTRY
COMP.                                                SPDC:   OPERATOR
SPUD.                                          1995/09/27:   SPUD DATE
UWBI.                                      40000000257301:   UWBI
~PARAMETER INFORMATION (log)
LNAM.                                              PUBLIC:   NAME
LTYP.                                         INTERPRETED:   LOG TYPE
LSRV.                                          EVALUATION:   SERVICE
LSOU.                                             TECHLOG:   LOG SOURCE
LVSN.                                                   1:   LOG VERSION
BHIS.                                                  RC:   BRIEF HISTORY
FHIS.                                     RAW-LAS/PUBLISH:   FULL HISTORY
CN  .                                              SNEPCO:   OPERATOR
~Curve Information Block
#MNEM.UNIT                                        API CODE    No Description
#=========                                        ========    == ===========
DEPT.F     FT. MD                            00 001 00 00:     1  DEPTH
DEN.G/CC                                                 :     2  Bulk Density
DT.US/F                                                  :     3  Sonic (Compressional)         Compressional sonic
GR.API                                                   :     4  Gamma Ray
NEUT.FRAC                                                :     5  Neutron Porosity
RES_DEP.OHMM                                             :     6  Resistivity Deep              Deep resistivity. RSN_01<5433> ATR_J <65
~ASCII
# ...
12557.5000     2.4447   112.0500    96.5501      .3966     1.8379
12558.0000     2.4400   111.1500    98.1771      .3911     1.8307
12558.5000     2.4383   111.3000    98.4007      .3932     1.8022
12559.0000     2.4439   113.0500    98.6665      .4015     1.7330
12559.5000     2.4514   113.6000    91.7222      .4006     1.6565
12560.0000     2.4550   114.2500   100.8864      .3897     1.6496
12560.5000     2.4461   114.1500    87.4956      .3759     1.6517
12561.0000     2.4408   114.1000    87.4112      .3813     1.6862
12561.5000     2.4400   113.6000    87.3339      .4031     1.7735
12562.0000     2.4422   112.1000    75.2411      .4238     1.9547
12562.5000     2.4396   112.4000    73.3814      .4182     1.8976
12563.0000     2.4304   114.4000    76.2954      .4133     1.6299
12563.5000     2.4234   114.3000    75.2508      .4103     1.4818
12564.0000     2.4226   113.7000    75.2861      .4131     1.4488
12564.5000     2.4310   114.0000    86.2178      .4153     1.4220
12565.0000     2.4386   112.2000    88.5040      .3813     1.4788
12565.5000     2.4390   110.5500    91.0266      .3721     1.7646
12566.0000     2.4434   110.2000    91.5243      .3618     1.9234
12566.5000     2.4456   110.5500    91.2878      .3748     1.8449
12567.0000     2.4489   111.6000    90.4781      .3668     1.8362
12567.5000     2.4487   111.8000    90.3222      .3536     1.8350
12568.0000     2.4513   112.1500    89.9384      .3626     1.8298
12568.5000     2.4490   112.4000    88.0096      .3666     1.8210
12569.0000     2.4456   112.2500    88.7925      .3753     1.7576
12569.5000     2.4433   112.2000    88.9727      .3669     1.7277
12570.0000     2.4438   110.7000    88.4338      .3755     1.7784
12570.5000     2.4473   110.5000    88.6278      .3626     1.8308
12571.0000     2.4423   111.1500    87.9121      .3589     1.9900
12571.5000     2.4430   110.7500    86.6642      .3297     2.1378
12572.0000     2.4466   110.3000    84.2755      .3332     2.0000
12572.5000     2.4444   111.0500    83.5533      .3472     1.8428
12573.0000     2.4390   112.6500    86.8352      .3611     1.7109
12573.5000     2.4398   117.8500    85.8886      .3670     1.6349
12574.0000     2.4495   114.4000    75.9225      .3602     1.5843
12574.5000     2.4504   116.1000    75.6703      .3667     1.5837
12575.0000     2.4385   117.1500    79.2412      .3528     1.5275
12575.5000     2.4193   116.2500    80.4783      .3491     1.5891
12576.0000     2.4181   117.4500    80.4538      .3542     1.5775
12576.5000     2.4163   119.0500    80.1703      .3785     1.5561
12577.0000     2.4097   117.5000    84.7348      .3786     1.5428
12577.5000     2.4055   119.3500    84.3929      .4101     1.5134
12578.0000     2.4113   119.6500    83.3155      .3971     1.4973
12578.5000     2.4329   117.1000    82.3149      .4108     1.4887
12579.0000     2.4349   118.0500    83.8639      .3834     1.4724
12579.5000     2.4337   117.9000    84.2770      .4032     1.4395
12580.0000     2.4250   117.9500    85.3095      .3932     1.4685
12580.5000     2.4276   117.9500    85.1340      .3860     1.4750
12581.0000     2.4286   118.2500    81.2567      .3750     1.4756
12581.5000     2.4312   117.2000    81.2438      .3775     1.4838
12582.0000     2.4325   115.1000    81.0157      .3814     1.5254
12582.5000     2.4373   115.2500    85.2909      .3767     1.6000
12583.0000     2.4460   113.9000    86.7822      .3672     1.7603
12583.5000     2.4471   106.5500    88.7768      .3645     1.8437
12584.0000     2.4348   106.5500    88.7683      .3642     1.7777
12584.5000     2.4304   106.9000    88.7879      .3723     1.6316
12585.0000     2.4245   107.2500    88.2344      .3723     1.5826
12585.5000     2.4298   107.7000    87.2472      .3976     1.5809
12586.0000     2.4363   108.3000    84.1095      .4115     1.5365
12586.5000     2.4478   109.0500    83.9504      .4355     1.3939
12587.0000     2.4499   109.2000    83.5735      .4374     1.3229
12587.5000     2.4466   109.5500    83.5257      .4321     1.4708
12588.0000     2.4464   108.3500    84.6374      .4101     2.0133
12588.5000     2.4480   107.9500    82.9937      .3725     2.5551
12589.0000     2.4506   107.1000    86.0798      .3298     2.8961
12589.5000     2.4477   103.9000    82.1359      .2875     3.1768
12590.0000     2.4488   100.1000    79.9453      .2501     3.1418
12590.5000     2.4343   100.1000    77.7316      .2188     2.8882
12591.0000     2.4111   102.5500    86.4896      .2350     2.7405
12591.5000     2.3897   100.9500    86.2466      .2766     2.6752
12592.0000     2.3825   102.8000    83.5799      .2957     2.6821
12592.5000     2.4092   102.9500    83.1109      .2676     2.6038
12593.0000     2.4297   104.7500    76.3937      .2304     2.2667
12593.5000     2.4463   108.1000    82.8777      .2716     1.7008
12594.0000     2.4335   112.0000    81.0061      .3358     1.3659
12594.5000     2.4178   116.1000    83.4853      .4080     1.3801
12595.0000     2.4079   121.1000    86.9395      .4184     1.5738
12595.5000     2.4007   118.7000    86.0456      .4166     1.5263
12596.0000     2.3961   121.2500    87.9376      .4012     1.5170
12596.5000     2.3966   122.6500    82.6382      .4123     1.5077
12597.0000     2.4018   122.1000    91.8944      .4145     1.4854
12597.5000     2.4113   122.2000    93.3072      .4253     1.3929
12598.0000     2.4202   121.7000    92.6627      .4530     1.2869
12598.5000     2.4361   121.4000    92.4271      .4608     1.2802
12599.0000     2.4434   121.3500    84.5537      .4426     1.2855
12599.5000     2.4529   121.7000    79.9929      .4083     1.3332
12600.0000     2.4484   120.3000    85.0709      .4131     1.3171
12600.5000     2.4511   118.0000    84.3736      .4111     1.3390
12601.0000     2.4520   115.6500    85.3437      .4199     1.3580
12601.5000     2.4571   116.6000    83.9981      .3967     1.4125
12602.0000     2.4570   116.9000    86.2260      .3801     1.5154
12602.5000     2.4568   116.1000    83.9440      .3675     1.5623
12603.0000     2.4513   115.4000    84.3379      .3529     1.5442
12603.5000     2.4453   115.3500    88.2975      .3605     1.5331
12604.0000     2.4434   115.7500    85.4220      .3568     1.5574
12604.5000     2.4430   116.0000    82.9639      .3704     1.5521
12605.0000     2.4537   114.8000    84.3712      .3865     1.5444
12605.5000     2.4549   114.8000    82.0205      .3963     1.5306
12606.0000     2.4509   115.1500    81.6477      .4072     1.5311
12606.5000     2.4464   115.1500    82.1709      .4095     1.7016
12607.0000     2.4530   114.5000    82.3086      .4101     1.8577
12607.5000     2.4560   113.4500    86.2544      .4002     1.6497
12608.0000     2.4508   111.3000    90.5257      .3910     1.5502
12608.5000     2.4455   110.0000    93.4754      .3631     1.5600
12609.0000     2.4572   109.8000    89.2713      .3600     1.5787
12609.5000     2.4592   111.2000    89.8072      .3581     1.5746
12610.0000     2.4626   111.7500    91.5228      .3724     1.5697
12610.5000     2.4501   111.0000    94.1194      .3849     1.5767
12611.0000     2.4399   111.2000    94.3132      .3943     1.5729
12611.5000     2.4398   111.0000    88.5841      .3997     1.5722
12612.0000     2.4537   111.3500    87.2201      .3689     1.5701
12612.5000     2.4622   108.0500    88.2416      .3505     1.5706
12613.0000     2.4428   106.1000    87.2217      .3479     1.5831
12613.5000     2.4268   109.0000    75.1831      .3823     1.5972
12614.0000     2.4238   106.2000    81.2211      .4208     1.7396
12614.5000     2.4384   103.9500    80.9535      .4147     1.9172
12615.0000     2.4831   103.1000    84.3726      .3839     1.9880
12615.5000     2.5019   103.4000    83.8658      .3397     2.1708
12616.0000     2.4881   104.7000    80.8587      .3344     2.0993
12616.5000     2.4657   107.6500    81.6693      .3481     1.8524
12617.0000     2.4543   107.3500    81.5119      .3501     1.8643
12617.5000     2.4598   105.0500    82.4465      .3428     1.9437
12618.0000     2.4633   103.4000    80.2375      .3309     1.9394
