~VERSION INFORMATION
VERS.                                                 2.0:   CWLS Log ASCII Standard-VERSION 2.0
WRAP.                                                  NO:   One line per depth step
~Well Information Block
STRT.F                                          3712.5000:   Top Depth
STOP.F                                         13707.5000:   Bottom Depth
STEP.F                                             .50000:   Depth Increment
NULL.                                            -999.250:   Null Value
FLD .                                             FREEMAN:   Field Name
WELL.                                         FREEMAN-001:   NAME
CTRY.                                                 NIG:   COUNTRY
COMP.                                                SPDC:   OPERATOR
SPUD.                                          1995/09/27:   SPUD DATE
UWBI.                                      40000000257301:   UWBI
~PARAMETER INFORMATION (log)
LNAM.                                              PUBLIC:   NAME
LTYP.                                         INTERPRETED:   LOG TYPE
LSRV.                                          EVALUATION:   SERVICE
LSOU.                                             TECHLOG:   LOG SOURCE
LVSN.                                                   1:   LOG VERSION
BHIS.                                                  RC:   BRIEF HISTORY
FHIS.                                     RAW-LAS/PUBLISH:   FULL HISTORY
CN  .                                              SNEPCO:   OPERATOR
~Curve Information Block
#MNEM.UNIT                                        API CODE    No Description
#=========                                        ========    == ===========
DEPT.F     FT. MD                            00 001 00 00:     1  DEPTH
DEN.G/CC                                                 :     2  Bulk Density
DT.US/F                                                  :     3  Sonic (Compressional)         Compressional sonic
GR.API                                                   :     4  Gamma Ray
NEUT.FRAC                                                :     5  Neutron Porosity
RES_DEP.OHMM                                             :     6  Resistivity Deep              Deep resistivity. RSN_01<5433> ATR_J <65
~ASCII
# ...
13106.5000     2.4796    97.9000    96.4879      .3739     2.4041
13107.0000     2.4873    97.6000    97.0636      .3680     2.7360
13107.5000     2.4946    96.4500    97.6275      .3902     2.3910
13108.0000     2.4862    99.6000    95.7626      .3782     1.9858
13108.5000     2.4725   102.1500    96.8807      .3768     2.0075
13109.0000     2.4710   103.9500    99.0072      .3772     2.0176
13109.5000     2.4756   104.0000    96.6519      .3871     2.0147
13110.0000     2.4752   102.8000    97.6477      .3968     2.0306
13110.5000     2.4689   102.0000    97.2954      .3988     2.0707
13111.0000     2.4658   101.7000    91.8311      .3963     2.1732
13111.5000     2.4653   103.2000    92.8440      .3790     2.2787
13112.0000     2.4627   102.3500    94.4541      .3852     2.1193
13112.5000     2.4726   103.6000    90.3632      .3975     2.0819
13113.0000     2.4727   103.3000    93.6066      .4095     2.0438
13113.5000     2.4722   103.6000    92.6405      .4061     2.2131
13114.0000     2.4611   103.3500    90.7308      .3912     2.2419
13114.5000     2.4606   103.7000    93.2064      .3913     2.2388
13115.0000     2.4584   102.9000    90.7218      .3965     2.2084
13115.5000     2.4654   103.6000    90.2429      .4089     2.1417
13116.0000     2.4756   103.5000    89.0548      .4048     2.1402
13116.5000     2.4792   102.6000    88.7588      .4118     2.1416
13117.0000     2.4567   102.2500    89.9819      .3977     2.2003
13117.5000     2.4488   101.5000    88.7394      .4139     2.3468
13118.0000     2.4606   100.7000    88.3999      .3846     2.4339
13118.5000     2.4838    98.8500    88.0885      .3751     2.6869
13119.0000     2.4986    98.3500    87.4159      .3285     2.4349
13119.5000     2.5003    97.6000    88.4197      .3293     2.2973
13120.0000     2.4879    98.3500    89.0571      .3493     2.2196
13120.5000     2.4842   100.7000    87.8549      .3922     2.1816
13121.0000     2.4773   102.8000    87.7286      .4161     2.0587
13121.5000     2.4736   103.9500    87.8665      .4006     2.0519
13122.0000     2.4613   103.3000    89.3900      .3822     2.1503
13122.5000     2.4576   104.2000    88.4208      .3820     1.9991
13123.0000     2.4520   103.9000    88.4229      .4035     1.9089
13123.5000     2.4658   102.7000    88.3605      .4055     1.9051
13124.0000     2.4710   102.4000    87.8544      .3925     1.9026
13124.5000     2.4746   103.5000    88.5151      .3970     1.9020
13125.0000     2.4646   102.4000    86.8238      .3944     1.8917
13125.5000     2.4522   104.1000    85.8471      .3975     1.8775
13126.0000     2.4470   106.2000    87.2880      .3826     1.8724
13126.5000     2.4541   105.6000    89.5229      .3926     1.9294
13127.0000     2.4622   104.9000    89.4613      .3993     2.2071
13127.5000     2.4646   104.4500    90.2390      .3934     2.0947
13128.0000     2.4569   104.7000    91.1925      .4028     2.0744
13128.5000     2.4465   105.7000    92.1091      .4010     2.0678
13129.0000     2.4352   105.5500    91.6893      .4157     2.0645
13129.5000     2.4378   106.7000    91.5691      .4259     2.0605
13130.0000     2.4428   105.9000    89.8895      .4200     2.0593
13130.5000     2.4538   106.5000    90.2995      .3955     2.0543
13131.0000     2.4540   104.9500    90.4953      .3835     2.0474
13131.5000     2.4484   105.6000    86.9149      .3847     2.0502
13132.0000     2.4500   106.2000    89.3086      .4025     2.0283
13132.5000     2.4457   105.9000    89.1397      .4013     2.0351
13133.0000     2.4440   106.0000    87.9401      .3992     2.0342
13133.5000     2.4449   105.3000    88.4649      .4005     2.0080
13134.0000     2.4381   105.6500    87.8342      .4062     1.9909
13134.5000     2.4428   106.9000    85.1114      .4138     1.9463
13135.0000     2.4434   106.8500    84.7767      .4191     1.9055
13135.5000     2.4513   106.6500    82.2755      .4168     1.9073
13136.0000     2.4501   106.8000    85.0851      .4287     1.9061
13136.5000     2.4502   106.2000    84.5885      .4288     1.8812
13137.0000     2.4440   105.4500    88.4483      .4301     1.9216
13137.5000     2.4335   106.5500    89.2003      .4173     1.9395
13138.0000     2.4287   106.0000    90.8850      .4256     1.9729
13138.5000     2.4278   106.8000    89.3206      .4123     2.0068
13139.0000     2.4346   106.1000    86.3508      .4125     1.8879
13139.5000     2.4544   106.9000    86.1834      .4022     1.8588
13140.0000     2.4641   106.2500    86.5465      .4042     1.8447
13140.5000     2.4676   106.2000    85.6670      .4067     1.8518
13141.0000     2.4567   106.1000    87.1754      .4022     1.9490
13141.5000     2.4643   105.7500    87.1067      .3895     1.9803
13142.0000     2.4643   106.0500    90.5084      .3708     1.8846
13142.5000     2.4645   107.4000    94.8464      .3666     1.7489
13143.0000     2.4557   108.6000    93.1779      .3886     1.6685
13143.5000     2.4475   111.0500    92.0245      .4019     1.5855
13144.0000     2.4520   112.5000    91.5705      .4113     1.4729
13144.5000     2.4418   112.8000    90.7009      .4150     1.3928
13145.0000     2.4445   113.0000    86.6931      .4208     1.3908
13145.5000     2.4495   112.4000    86.6650      .4146     1.4108
13146.0000     2.4652   111.6500    85.1062      .4040     1.4487
13146.5000     2.4630   111.0000    85.8344      .4031     1.5482
13147.0000     2.4499   109.7000    85.5735      .3955     1.6036
13147.5000     2.4567   108.5500    85.4523      .3830     1.6054
13148.0000     2.4619   108.8000    87.3695      .3768     1.6105
13148.5000     2.4699   107.5500    86.0855      .3835     1.5977
13149.0000     2.4687   106.6500    83.3864      .3956     1.6225
13149.5000     2.4673   107.8000    82.3316      .4045     1.6299
13150.0000     2.4824   108.1500    82.8563      .3985     1.6168
13150.5000     2.4886   108.4000    80.9253      .3984     1.6256
13151.0000     2.4962   112.1500    79.5053      .3965     1.5210
13151.5000     2.4825   114.7000    80.6465      .4180     1.3088
13152.0000     2.4763   117.1000    79.3335      .4192     1.2082
13152.5000     2.4750   116.6500    78.3421      .4090     1.1124
13153.0000     2.4567   115.6000    76.0143      .4094     1.0703
13153.5000     2.4343   117.7500    78.7402      .4144     1.1115
13154.0000     2.4128   117.5500    76.4006      .4299     1.0908
13154.5000     2.4116   118.9000    74.4261      .4239     1.0917
13155.0000     2.4131   117.5000    74.2731      .4189     1.1239
13155.5000     2.4137   117.3500    73.2200      .4269     1.1550
13156.0000     2.4129   116.5000    72.8949      .4474     1.1846
13156.5000     2.4147   117.0000    74.7717      .4521     1.2297
13157.0000     2.4221   117.0000    75.4798      .4563     1.2711
13157.5000     2.4252   117.1000    86.7007      .4557     1.2918
13158.0000     2.4271   116.6000    82.9895      .4666     1.3630
13158.5000     2.4193   114.9500    78.5494      .4586     1.4349
13159.0000     2.4222   113.8000    77.3147      .4494     1.5578
13159.5000     2.4252   114.1000    75.7978      .4442     1.6584
13160.0000     2.4256   114.2500    76.1000      .4291     1.7751
13160.5000     2.4292   114.2500    80.9469      .4219     1.8308
13161.0000     2.4439   113.9000    80.8926      .4169     1.7917
13161.5000     2.4547   113.6000    81.1692      .4130     1.7834
13162.0000     2.4560   113.6500    83.0510      .4142     1.7604
13162.5000     2.4474   114.1500    81.5346      .4003     1.6784
13163.0000     2.4431   113.6000    81.1070      .4075     1.5909
13163.5000     2.4482   113.9000    80.7372      .4037     1.5222
13164.0000     2.4520   114.0000    81.0532      .4243     1.4594
13164.5000     2.4587   113.9000    81.4304      .4208     1.4333
13165.0000     2.4548   113.8000    80.3139      .4329     1.4059
13165.5000     2.4549   113.8500    80.3692      .4231     1.3907
13166.0000     2.4480   113.4000    76.2918      .4259     1.3925
13166.5000     2.4513   113.4000    78.3351      .4127     1.3999
13167.0000     2.4617   113.1500    74.6855      .4113     1.4238
