~VERSION INFORMATION
VERS.                                                 2.0:   CWLS Log ASCII Standard-VERSION 2.0
WRAP.                                                  NO:   One line per depth step
~Well Information Block
STRT.F                                          3712.5000:   Top Depth
STOP.F                                         13707.5000:   Bottom Depth
STEP.F                                             .50000:   Depth Increment
NULL.                                            -999.250:   Null Value
FLD .                                             FREEMAN:   Field Name
WELL.                                         FREEMAN-001:   NAME
CTRY.                                                 NIG:   COUNTRY
COMP.                                                SPDC:   OPERATOR
SPUD.                                          1995/09/27:   SPUD DATE
UWBI.                                      40000000257301:   UWBI
~PARAMETER INFORMATION (log)
LNAM.                                              PUBLIC:   NAME
LTYP.                                         INTERPRETED:   LOG TYPE
LSRV.                                          EVALUATION:   SERVICE
LSOU.                                             TECHLOG:   LOG SOURCE
LVSN.                                                   1:   LOG VERSION
BHIS.                                                  RC:   BRIEF HISTORY
FHIS.                                     RAW-LAS/PUBLISH:   FULL HISTORY
CN  .                                              SNEPCO:   OPERATOR
~Curve Information Block
#MNEM.UNIT                                        API CODE    No Description
#=========                                        ========    == ===========
DEPT.F     FT. MD                            00 001 00 00:     1  DEPTH
DEN.G/CC                                                 :     2  Bulk Density
DT.US/F                                                  :     3  Sonic (Compressional)         Compressional sonic
GR.API                                                   :     4  Gamma Ray
NEUT.FRAC                                                :     5  Neutron Porosity
RES_DEP.OHMM                                             :     6  Resistivity Deep              Deep resistivity. RSN_01<5433> ATR_J <65
~ASCII
# ...
 5908.5000     2.0165   166.5000    62.1069      .5864      .9020
 5909.0000     2.0103   163.8000    57.4556      .5851      .8780
 5909.5000     2.0145   160.6000    60.9082      .5664      .9260
 5910.0000     2.0192   161.4001    64.5251      .5523      .8930
 5910.5000     2.0346   164.7000    64.4048      .5098      .8230
 5911.0000     2.0320   162.9000    65.2087      .5183      .8580
 5911.5000     2.0294   162.4000    65.2659      .5005      .8850
 5912.0000     2.0345   161.0000    63.7211      .5714      .8420
 5912.5000     2.0567   160.7000    67.7310      .5391      .8660
 5913.0000     2.0674   158.3000    67.1945      .5398      .8890
 5913.5000     2.0595   163.9000    62.5304      .4678      .8710
 5914.0000     2.0495   171.3000    55.1103      .4201      .8800
 5914.5000     2.0285   156.8000    30.5185      .3553      .8150
 5915.0000     2.0191   158.3000    24.8930      .3148      .5500
 5915.5000     2.0137   163.4000    25.2752      .2907      .4350
 5916.0000     2.0221   167.0000    23.6462      .3117      .3740
 5916.5000     2.0014   176.4000    22.9401      .3738      .3400
 5917.0000     1.9740   177.6000    24.6422      .4162      .3140
 5917.5000     1.9171   178.8000    27.1846      .4273      .2970
 5918.0000     1.8285   184.5000    26.3716      .4319      .2980
 5918.5000     1.7962   185.3000    25.8510      .4670      .3050
 5919.0000     1.8066   187.9000    24.3080      .4664      .3170
 5919.5000     1.8680   188.4000    24.3121      .4509      .3250
 5920.0000     1.8461   191.7000    25.4326      .4380      .3330
 5920.5000     1.8104   187.6000    26.4104      .4286      .3480
 5921.0000     1.7985   188.7000    25.4903      .4558      .3590
 5921.5000     1.8632   187.5000    32.5038      .4531      .3620
 5922.0000     1.9345   189.4000    33.9962      .4575      .3640
 5922.5000     2.0067   186.3000    36.2358      .4356      .3740
 5923.0000     2.0361   185.6000    34.1550      .4136      .3960
 5923.5000     2.0084   185.8000    26.1386      .4242      .3880
 5924.0000     2.0082   177.6000    25.4447      .4465      .3900
 5924.5000     2.0169   174.4000    38.1092      .4750      .4450
 5925.0000     2.0092   173.8000    47.3014      .5102      .5730
 5925.5000     1.9994   172.8000    61.5682      .5425      .7110
 5926.0000     2.0068   172.6000    60.5631      .5336      .8140
 5926.5000     2.0223   171.6000    61.0228      .5289      .8630
 5927.0000     2.0479   170.6000    63.1314      .4985      .9100
 5927.5000     2.0877   175.4000    63.4300      .5121      .9550
 5928.0000     2.1204   173.2000    62.8812      .5219      .9970
 5928.5000     2.0802   172.4000    66.5640      .4953     1.0250
 5929.0000     2.0262   170.5000    59.9062      .5349     1.0250
 5929.5000     1.9870   164.4000    61.8744      .4936      .9890
 5930.0000     2.0005   155.9001    63.4346      .5280      .9560
 5930.5000     2.0155   153.8000    62.3304      .5396      .9170
 5931.0000     2.0298   157.4000    67.0079      .5667      .8920
 5931.5000     2.0271   158.5000    65.3303      .5585      .8290
 5932.0000     2.0228   157.0000    63.8552      .5092      .8580
 5932.5000     2.0118   157.8000    61.8892      .5163      .8900
 5933.0000     2.0089   159.7000    62.2667      .5334      .8730
 5933.5000     1.9955   155.6000    62.7964      .5001      .7590
 5934.0000     1.9893   154.1000    63.9622      .5024      .6950
 5934.5000     1.9877   157.0000    63.6654      .4984      .5590
 5935.0000     1.9850   154.3000    61.9795      .5282      .6410
 5935.5000     1.9743   154.0000    62.4691      .5347      .7280
 5936.0000     1.9546   154.5000    60.8230      .5529      .8230
 5936.5000     1.9313   156.4000    58.6331      .5607      .9110
 5937.0000     1.9239   156.2000    61.8519      .5484      .9430
 5937.5000     1.9277   156.8000    62.8051      .4947      .9600
 5938.0000     1.9484   157.2000    59.4537      .5059      .9690
 5938.5000     1.9508   157.2000    60.0218      .5075     1.0130
 5939.0000     1.9345   156.0000    59.4361      .5207     1.0840
 5939.5000     1.9191   155.3000    57.1114      .5067     1.1200
 5940.0000     1.9439   154.2000    58.1620      .4928     1.1150
 5940.5000     1.9938   151.1000    61.4455      .5273     1.1190
 5941.0000     2.0344   146.9000    62.5665      .5041     1.1460
 5941.5000     2.0483   148.1000    62.2953      .5066     1.1700
 5942.0000     2.0292   152.9000    60.8982      .4681     1.1780
 5942.5000     1.9982   152.8000    61.5418      .5228     1.1710
 5943.0000     1.9836   153.8000    60.4880      .5232     1.1830
 5943.5000     1.9735   153.6000    60.2454      .5351     1.1860
 5944.0000     1.9799   154.7000    63.0367      .5084     1.1740
 5944.5000     1.9826   153.4000    61.1723      .4923     1.1810
 5945.0000     2.0189   152.2000    61.0494      .4828     1.1800
 5945.5000     2.0528   150.6000    59.4713      .4737     1.1900
 5946.0000     2.0847   149.5000    58.6653      .4811     1.1630
 5946.5000     2.1021   144.5000    58.2999      .4439     1.2280
 5947.0000     2.1274   143.1000    60.7429      .4284     1.2700
 5947.5000     2.1436   144.6000    59.2477      .4284     1.3020
 5948.0000     2.1537   143.3000    58.2405      .4534     1.3190
 5948.5000     2.1484   142.1000    56.6543      .4636     1.3240
 5949.0000     2.1495   143.2000    55.6742      .4771     1.3710
 5949.5000     2.1457   145.3000    56.5126      .4877     1.3930
 5950.0000     2.1461   143.9000    54.3870      .4723     1.3720
 5950.5000     2.1367   142.8000    56.2641      .4773     1.3710
 5951.0000     2.1366   143.7000    58.9512      .4698     1.3510
 5951.5000     2.1366   143.5000    59.1019      .4734     1.3290
 5952.0000     2.1275   141.3000    58.0891      .4447     1.3410
 5952.5000     2.1234   141.7000    59.8564      .4640     1.3540
 5953.0000     2.1198   143.4000    58.4724      .4805     1.3490
 5953.5000     2.1110   144.5000    60.3903      .4822     1.3490
 5954.0000     2.1051   142.7000    54.0227      .4489     1.3590
 5954.5000     2.1249   141.8000    54.5581      .4501     1.3690
 5955.0000     2.1513   140.5000    54.5535      .4511     1.3930
 5955.5000     2.1781   139.2000    56.2577      .4579     1.4270
 5956.0000     2.1841   136.4000    55.3932      .4290     1.4890
 5956.5000     2.1840   137.1000    56.3750      .4216     1.5270
 5957.0000     2.1872   141.5000    57.0209      .4280     1.5360
 5957.5000     2.1918   140.0000    57.5321      .4384     1.5530
 5958.0000     2.1922   138.9000    57.7561      .4467     1.1040
 5958.5000     2.1950   135.8000    57.4086      .4650     1.5860
 5959.0000     2.1875   132.6000    57.0357      .4560     1.6030
 5959.5000     2.1735   133.0000    58.8275      .4625     1.6070
 5960.0000     2.1535   135.6000    58.2469      .4639     1.5930
 5960.5000     2.1487   137.0000    56.5900      .4867     1.5370
 5961.0000     2.1591   137.7000    59.5851      .4826     1.4870
 5961.5000     2.1732   133.0000    59.4683      .4616     1.4700
 5962.0000     2.1709   130.7000    60.0550      .4717     1.4600
 5962.5000     2.1693   131.2000    61.8170      .4813     1.4530
 5963.0000     2.1401   133.5000    63.7148      .4948     1.4150
 5963.5000     2.1149   136.0000    65.3687      .5005     1.4100
 5964.0000     2.0831   137.7000    64.5643      .5092     1.3920
 5964.5000     2.0622   139.6000    64.4294      .5107     1.3670
 5965.0000     2.0543   141.8000    65.5717      .5268     1.3770
 5965.5000     2.0506   144.0000    65.3395      .5172     1.3960
 5966.0000     2.0429   143.7000    63.5002      .5369     1.3910
 5966.5000     2.0535   142.5000    62.7334      .5256     1.4000
 5967.0000     2.0765   144.7000    67.7297      .5296     1.4000
 5967.5000     2.1033   144.6000    65.9649      .5095     1.4090
 5968.0000     2.1063   145.9000    64.0558      .5101     1.4260
 5968.5000     2.1079   143.7000    68.1095      .4884     1.4590
 5969.0000     2.1085   139.3000    65.9906      .4969     1.4490
