~VERSION INFORMATION
VERS.                                                 2.0:   CWLS Log ASCII Standard-VERSION 2.0
WRAP.                                                  NO:   One line per depth step
~Well Information Block
STRT.F                                          3712.5000:   Top Depth
STOP.F                                         13707.5000:   Bottom Depth
STEP.F                                             .50000:   Depth Increment
NULL.                                            -999.250:   Null Value
FLD .                                             FREEMAN:   Field Name
WELL.                                         FREEMAN-001:   NAME
CTRY.                                                 NIG:   COUNTRY
COMP.                                                SPDC:   OPERATOR
SPUD.                                          1995/09/27:   SPUD DATE
UWBI.                                      40000000257301:   UWBI
~PARAMETER INFORMATION (log)
LNAM.                                              PUBLIC:   NAME
LTYP.                                         INTERPRETED:   LOG TYPE
LSRV.                                          EVALUATION:   SERVICE
LSOU.                                             TECHLOG:   LOG SOURCE
LVSN.                                                   1:   LOG VERSION
BHIS.                                                  RC:   BRIEF HISTORY
FHIS.                                     RAW-LAS/PUBLISH:   FULL HISTORY
CN  .                                              SNEPCO:   OPERATOR
~Curve Information Block
#MNEM.UNIT                                        API CODE    No Description
#=========                                        ========    == ===========
DEPT.F     FT. MD                            00 001 00 00:     1  DEPTH
DEN.G/CC                                                 :     2  Bulk Density
DT.US/F                                                  :     3  Sonic (Compressional)         Compressional sonic
GR.API                                                   :     4  Gamma Ray
NEUT.FRAC                                                :     5  Neutron Porosity
RES_DEP.OHMM                                             :     6  Resistivity Deep              Deep resistivity. RSN_01<5433> ATR_J <65
~ASCII
# ...
 6457.5000     2.0041   158.0000    57.6459      .5280     1.1150
 6458.0000     2.0166   157.2000    62.7740      .5153     1.2270
 6458.5000     2.0189   157.3000    60.9325      .5190     1.3400
 6459.0000     2.0392   154.7000    59.7538      .5058     1.4560
 6459.5000     2.0697   152.4000    65.0470      .5183     1.5230
 6460.0000     2.1108   145.8000    67.5309      .4940     1.5530
 6460.5000     2.1431   141.2000    60.3774      .5026     1.5740
 6461.0000     2.1614   137.5000    61.9975      .4790     1.5550
 6461.5000     2.1781   131.3000    60.5468      .4798     1.4780
 6462.0000     2.2035   128.9000    59.2830      .4172     1.3430
 6462.5000     2.2135   128.3000    57.2184      .4246     1.1900
 6463.0000     2.2320   126.4000    55.3830      .4447     1.0340
 6463.5000     2.2573   119.8000    56.9755      .4390      .9370
 6464.0000     2.2525   125.6000    55.4190      .4478      .9260
 6464.5000     2.1490   134.4000    56.8317      .4446      .8800
 6465.0000     1.9939   146.7000    55.9775      .5255      .8880
 6465.5000     1.8883   160.6000    57.2559      .5859      .9000
 6466.0000     1.8530   165.7000    56.1895      .6471      .9200
 6466.5000     1.8533   165.2000    55.7913      .6371      .9540
 6467.0000     1.8595   163.8000    54.3555      .5738      .9950
 6467.5000     1.8854   154.8000    55.4477      .5426     1.0190
 6468.0000     1.9575   152.3000    58.1798      .4968     1.0180
 6468.5000     2.0504   150.9000    60.6256      .4911     1.0080
 6469.0000     2.0959   151.3000    60.5699      .4518     1.0180
 6469.5000     2.0623   153.5000    58.3297      .5593     1.0260
 6470.0000     2.0065   153.0000    57.1876      .6043     1.0260
 6470.5000     1.9570   154.3000    59.6196      .6437     1.0290
 6471.0000     1.9689   151.0000    60.9350      .5809     1.0390
 6471.5000     2.0162   150.0000    61.0397      .5611     1.0470
 6472.0000     2.0396   150.8000    60.6901      .5402     1.0610
 6472.5000     2.0487   151.1000    59.6320      .5178     1.0830
 6473.0000     2.0421   149.8000    60.5198      .5095     1.0820
 6473.5000     2.0579   149.2000    59.6173      .4795     1.0990
 6474.0000     2.0831   149.4000    61.5908      .4580     1.1520
 6474.5000     2.1051   144.8000    62.3803      .4542     1.1860
 6475.0000     2.1086   146.6000    62.2699      .4805     1.2140
 6475.5000     2.1101   145.1000    60.7511      .5263     1.2210
 6476.0000     2.1128   148.5000    62.1422      .5420     1.2400
 6476.5000     2.1268   147.7000    63.0484      .5204     1.2090
 6477.0000     2.1299   146.8000    64.7507      .4968     1.1620
 6477.5000     2.1290   147.8000    65.1733      .5106     1.1370
 6478.0000     2.1164   150.3000    65.4913      .5934     1.1100
 6478.5000     2.1188   150.7045    65.3781      .5889     1.1200
 6479.0000     2.1273   150.2388    65.4980      .5849     1.0690
 6479.5000     2.1368   150.4794    65.6961      .5335     1.0010
 6480.0000     2.1359   150.9994    67.7649      .5255      .9800
 6480.5000     2.1380   151.1870    70.1906      .5336      .9730
 6481.0000     2.1319   151.0645    65.9648      .5378      .9540
 6481.5000     2.1288   151.0374    64.4567      .5411      .8140
 6482.0000     2.1270   151.3210    63.9771      .5034      .6970
 6482.5000     2.1256   151.9904    61.9591      .4930      .6350
 6483.0000     2.1227   153.5940    61.1693      .4835      .7550
 6483.5000     2.1227   155.9391    60.3998      .5139      .8430
 6484.0000     2.1227   157.9008    57.8181      .5127      .8590
 6484.5000     2.1227   159.6517    60.8447      .5635      .8590
 6485.0000     2.1227   161.2000    61.7299      .5160      .8720
 6485.5000     2.1227   161.8317    61.5361      .5336      .8790
 6486.0000     2.1228   162.4863    60.1958      .5529      .8850
 6486.5000     2.1228   163.6133    61.1631      .5410      .8970
 6487.0000     2.1228   164.5458    59.4403      .5166      .9040
 6487.5000     2.1228   165.1734    57.6846      .4724      .9120
 6488.0000     2.1228   165.5259    57.1465      .5222      .9200
 6488.5000     2.1228   165.5940    55.6316      .5426      .9260
 6489.0000     2.1228   165.4307    63.0245      .6209      .9430
 6489.5000     2.1228   165.3365    62.0982      .6078      .9510
 6490.0000     2.1228   165.1590    60.1705      .6316      .9440
 6490.5000     2.1228   163.9207    63.0003      .5641      .9370
 6491.0000     2.1228   162.0546    59.5161      .5870      .9310
 6491.5000     2.1228   160.8044    61.4650      .5505      .9150
 6492.0000     2.1229   160.2335    64.7012      .5289      .9100
 6492.5000     2.1229   160.2181    66.4896      .5055      .9050
 6493.0000     2.1229   160.4381    63.1755      .4893      .8970
 6493.5000     2.1229   160.3218    64.1842      .5282      .8700
 6494.0000     2.1229   160.0425    63.3705      .5635      .8640
 6494.5000     2.1229   159.7842    63.7411      .6049      .8620
 6495.0000     2.1229   159.8634    64.8344      .5877      .8690
 6495.5000     2.1229   160.8959    63.5399      .5676      .8830
 6496.0000     2.1229   161.9517    65.0620      .5912      .8970
 6496.5000     2.1229   162.3706    66.2566      .6085      .8980
 6497.0000     2.1229   163.0280    70.8551      .5900      .9130
 6497.5000     2.1230   163.8530    69.7369      .5515      .9350
 6498.0000     2.1230   163.9535    69.4871      .4952      .9360
 6498.5000     2.1230   162.8947    75.2592      .5314      .9280
 6499.0000     2.1230   161.2612    76.0371      .5372      .9220
 6499.5000     2.1230   160.1040    77.9307      .5953      .9210
 6500.0000     2.1230   159.6782    79.8107      .5803      .9250
 6500.5000     2.1230   159.6050    79.2968      .5984      .9220
 6501.0000     2.1230   159.2255    81.2720      .6096      .9110
 6501.5000     2.1230   159.0907    82.8514      .5920      .8930
 6502.0000     2.1230   159.9397    84.1111      .5593      .8730
 6502.5000     2.1230   160.9046    86.2207      .5388      .8530
 6503.0000     2.1230   161.4519    84.6312      .5727      .8340
 6503.5000     2.1231   161.4190    87.6674      .5905      .8200
 6504.0000     2.1231   160.7774    86.9127      .5819      .8030
 6504.5000     2.1231   160.2371    89.1556      .6007      .7940
 6505.0000     2.1231   160.0863    88.7674      .6019      .7930
 6505.5000     2.1231   160.1496    91.6043      .5955      .7930
 6506.0000     2.1231   160.1109    93.8643      .5695      .8070
 6506.5000     2.1231   159.9389    95.9754      .5515      .8270
 6507.0000     2.1231   160.7054    97.5061      .5369      .8370
 6507.5000     2.1231   163.4493    99.5273      .4950      .8350
 6508.0000     2.1231   166.1838   101.7555      .5322      .8350
 6508.5000     2.1231   166.8919   103.4796      .5478      .8410
 6509.0000     2.1232   167.2511   104.7389      .6074      .8350
 6509.5000     2.1232   168.2290   106.1426      .5811      .8240
 6510.0000     2.1232   169.0369   107.9406      .6030      .8220
 6510.5000     2.1232   169.2529   107.9406      .5613      .8140
 6511.0000     2.1232   169.4184   107.9406      .5739      .8050
 6511.5000     2.1232   169.6065   107.9406      .5796      .8070
 6512.0000     2.1232   169.1372   107.9406      .5972      .8020
 6512.5000     2.1232   168.1212   107.9406      .5814      .8350
 6513.0000     2.1232   167.2087   107.9406      .5474      .8640
 6513.5000     2.1232   166.7157   107.9406      .5431      .8930
 6514.0000     2.1232   167.1340   107.9406      .5685      .9020
 6514.5000     2.1233   168.4760   107.9406      .5965      .9010
 6515.0000     2.1233   169.8725   107.9406      .6279      .8930
 6515.5000     2.1233   170.7611   107.9406      .5931      .8950
 6516.0000     2.1233   171.6957   107.9406      .6126      .9020
 6516.5000     2.1233   172.7083   107.9406      .5394      .9000
 6517.0000     2.1233   172.3051   107.9406      .5114      .9080
 6517.5000     2.1233   170.3845   107.9406      .4389      .9070
 6518.0000     2.1233   168.7329   107.9406      .4373      .9060
