~VERSION INFORMATION
VERS.                                                 2.0:   CWLS Log ASCII Standard-VERSION 2.0
WRAP.                                                  NO:   One line per depth step
~Well Information Block
STRT.F                                          3712.5000:   Top Depth
STOP.F                                         13707.5000:   Bottom Depth
STEP.F                                             .50000:   Depth Increment
NULL.                                            -999.250:   Null Value
FLD .                                             FREEMAN:   Field Name
WELL.                                         FREEMAN-001:   NAME
CTRY.                                                 NIG:   COUNTRY
COMP.                                                SPDC:   OPERATOR
SPUD.                                          1995/09/27:   SPUD DATE
UWBI.                                      40000000257301:   UWBI
~PARAMETER INFORMATION (log)
LNAM.                                              PUBLIC:   NAME
LTYP.                                         INTERPRETED:   LOG TYPE
LSRV.                                          EVALUATION:   SERVICE
LSOU.                                             TECHLOG:   LOG SOURCE
LVSN.                                                   1:   LOG VERSION
BHIS.                                                  RC:   BRIEF HISTORY
FHIS.                                     RAW-LAS/PUBLISH:   FULL HISTORY
CN  .                                              SNEPCO:   OPERATOR
~Curve Information Block
#MNEM.UNIT                                        API CODE    No Description
#=========                                        ========    == ===========
DEPT.F     FT. MD                            00 001 00 00:     1  DEPTH
DEN.G/CC                                                 :     2  Bulk Density
DT.US/F                                                  :     3  Sonic (Compressional)         Compressional sonic
GR.API                                                   :     4  Gamma Ray
NEUT.FRAC                                                :     5  Neutron Porosity
RES_DEP.OHMM                                             :     6  Resistivity Deep              Deep resistivity. RSN_01<5433> ATR_J <65
~ASCII
# ...
12008.5000     2.4598    99.4840    67.1438      .3463     2.0567
12009.0000     2.4542    99.0690    64.6369      .3415     2.1960
12009.5000     2.4367    98.9580    62.5115      .3615     2.2281
12010.0000     2.4104    99.1480    59.4469      .3745     1.9922
12010.5000     2.4103    98.8880    64.2688      .3774     2.0030
12011.0000     2.4306    98.0330    74.0686      .3214     2.0235
12011.5000     2.4658    97.4580    68.9083      .2914     1.9743
12012.0000     2.4498    97.3190    64.0883      .2752     1.9463
12012.5000     2.4118    97.2770    65.9932      .2980     1.8865
12013.0000     2.3940    97.4250    70.3171      .2964     1.8260
12013.5000     2.4047    97.8870    74.0029      .2846     1.9587
12014.0000     2.4289    98.6240    90.1823      .2754     2.0868
12014.5000     2.4581    99.3750    90.9542      .2896     2.0905
12015.0000     2.4723   100.0000    91.0182      .3288     2.0892
12015.5000     2.4934   100.0000    91.5561      .3762     2.1419
12016.0000     2.5070   101.0000    89.6387      .4002     2.0813
12016.5000     2.4916   102.0000    89.0670      .3994     1.8470
12017.0000     2.4819   103.0000    90.4762      .4003     1.8308
12017.5000     2.4906   105.0000    88.7442      .3643     1.8273
12018.0000     2.5049   107.0000    85.3858      .3660     1.8158
12018.5000     2.5037   108.0000    83.8041      .3756     1.7672
12019.0000     2.4976   109.0000    83.7138      .4167     1.7153
12019.5000     2.4945   109.0000    83.2269      .4318     1.5682
12020.0000     2.4933   108.0000    82.6245      .4249     1.4321
12020.5000     2.4943   108.0000    84.0739      .4226     1.4511
12021.0000     2.4990   108.0000    84.8354      .4186     1.4734
12021.5000     2.4973   108.0000    83.1324      .4186     1.4888
12022.0000     2.4869   108.0000    83.3274      .4164     1.5116
12022.5000     2.4807   108.0000    83.2523      .4240     1.5663
12023.0000     2.4756   108.0000    86.7408      .4218     1.6045
12023.5000     2.4759   108.0000    86.3275      .4459     1.6210
12024.0000     2.4796   107.0000    84.8791      .4298     1.6305
12024.5000     2.4840   107.0000    85.1086      .4610     1.6243
12025.0000     2.4903   108.0000    85.9566      .4417     1.6161
12025.5000     2.4832   108.0000    89.2644      .4577     1.6169
12026.0000     2.4825   109.0000    88.4364      .4144     1.6185
12026.5000     2.4854   108.0000    88.3876      .4159     1.5993
12027.0000     2.4875   107.0000    89.4153      .4096     1.6237
12027.5000     2.4830   107.0000    89.9324      .4200     1.6540
12028.0000     2.4728   108.0000    92.5623      .4127     1.6881
12028.5000     2.4694   108.0000    89.4750      .4133     1.7400
12029.0000     2.4762   109.0000    89.6315      .3938     1.7750
12029.5000     2.4786   109.0000    91.8779      .3856     1.7638
12030.0000     2.4743   110.0000    89.7404      .3846     1.7006
12030.5000     2.4728   110.0000    91.7484      .4091     1.6482
12031.0000     2.4701   110.0000    84.8155      .4407     1.5659
12031.5000     2.4731   110.0000    85.1526      .4401     1.5125
12032.0000     2.4734   109.0000    83.8912      .4216     1.5686
12032.5000     2.4838   108.0000    85.3852      .4212     1.5823
12033.0000     2.4882   108.0000    91.4153      .4328     1.6116
12033.5000     2.4873   109.0000    89.8612      .4438     1.6777
12034.0000     2.4802   110.0000    89.9485      .4271     1.7270
12034.5000     2.4770   110.0000    88.2941      .4360     1.7347
12035.0000     2.4787   111.0000    88.6502      .4335     1.7057
12035.5000     2.4861   111.0000    88.4627      .4235     1.6839
12036.0000     2.4870   110.0000    89.6185      .4111     1.6326
12036.5000     2.4876   109.0000    90.3773      .3933     1.6154
12037.0000     2.4958   108.0000    88.7442      .4038     1.6462
12037.5000     2.5172   107.0000    96.5901      .4088     1.7464
12038.0000     2.5335   106.0000    94.8864      .4211     1.9015
12038.5000     2.5372   106.0000    92.4194      .3966     1.9319
12039.0000     2.5263   105.0000    93.6533      .3831     1.9588
12039.5000     2.5139   106.0000    95.7577      .3766     2.0000
12040.0000     2.4997   106.0000    95.7381      .4027     1.8858
12040.5000     2.4941   106.0000    94.2437      .4085     1.7342
12041.0000     2.4897   106.0000    95.6121      .4158     1.7296
12041.5000     2.4976   106.0000    89.3691      .4099     1.7385
12042.0000     2.4975   106.0000    92.1859      .3915     1.8260
12042.5000     2.5013   106.0000    94.8037      .3906     1.8491
12043.0000     2.4978   106.0000    90.6315      .3955     1.8482
12043.5000     2.5071   105.0000    83.9576      .4127     1.7939
12044.0000     2.5076   104.0000    88.6810      .4262     1.6369
12044.5000     2.5077   102.0000    88.9447      .4202     1.7163
12045.0000     2.5082   102.0000    84.5137      .3844     1.7597
12045.5000     2.5120   101.0000    84.6682      .3404     1.7644
12046.0000     2.5095   100.0000    85.3034      .3017     1.8677
12046.5000     2.5020    99.8460    87.3732      .2934     1.9736
12047.0000     2.5023    99.8470    92.5429      .3220     1.9909
12047.5000     2.4998   100.0000    92.0015      .3562     2.0063
12048.0000     2.5022   101.0000    91.9769      .3852     2.0203
12048.5000     2.5028    99.9840    92.0250      .3743     2.0442
12049.0000     2.5038    98.0780    89.8082      .3816     2.2261
12049.5000     2.5060    97.0830    89.5396      .3617     2.3507
12050.0000     2.5078    96.9480    89.5806      .3502     2.3514
12050.5000     2.5140    96.7390    87.9910      .3497     2.3644
12051.0000     2.5147    96.4280    89.4163      .3720     2.3993
12051.5000     2.5155    96.4520    89.6010      .3948     2.4034
12052.0000     2.5117    96.8530    89.2410      .3888     2.4063
12052.5000     2.5079    97.8760    92.3747      .3978     2.3362
12053.0000     2.5091    99.9840    89.8148      .4027     2.1151
12053.5000     2.5160   102.0000    92.0277      .4017     2.0704
12054.0000     2.5128   103.0000    91.3903      .3857     2.0536
12054.5000     2.5012   102.0000    92.2348      .3749     2.0252
12055.0000     2.4991   100.0000    93.0724      .3624     1.9910
12055.5000     2.4913    99.8260    93.1115      .3548     1.9582
12056.0000     2.4986    99.5480    92.8499      .3673     1.9352
12056.5000     2.4935    98.6250    92.0319      .3844     1.9753
12057.0000     2.4981    97.8080    90.7589      .3540     2.1917
12057.5000     2.5057    98.4670    88.6132      .2975     2.2759
12058.0000     2.5116    99.9800    90.3195      .2345     2.2895
12058.5000     2.5214   101.0000    87.7108      .2550     2.2961
12059.0000     2.5192   101.0000    91.1928      .2854     2.2811
12059.5000     2.5196   101.0000    91.6228      .3317     2.2170
12060.0000     2.5082   101.0000    90.4454      .3466     2.1699
12060.5000     2.5046   102.0000    96.2472      .3621     2.1424
12061.0000     2.5082   102.0000    94.1274      .3756     2.1398
12061.5000     2.5106   101.0000    91.7083      .3716     2.1432
12062.0000     2.5242   100.0000    91.1729      .3692     2.2033
12062.5000     2.5187    99.7120    91.6173      .3641     2.5101
12063.0000     2.5173    98.9050    89.6348      .3480     2.5865
12063.5000     2.5088    98.1170    89.7942      .3280     2.5885
12064.0000     2.5124    96.7470    92.5910      .3166     2.5880
12064.5000     2.5143    95.5380    93.1803      .3329     2.5886
12065.0000     2.5107    95.4500    92.9907      .3431     2.5892
12065.5000     2.4965    96.2490    92.9280      .3330     2.5888
12066.0000     2.4872    97.2460    92.8227      .3192     2.6091
12066.5000     2.4841    98.0290    95.1286      .2985     2.6135
12067.0000     2.4809    98.3570    92.9347      .3146     2.5341
12067.5000     2.4779    98.2230    92.0957      .3075     2.4114
12068.0000     2.4806    98.1200    90.8675      .3176     2.3907
12068.5000     2.4880    98.5090    92.1090      .3166     2.3844
12069.0000     2.5004    99.2840    96.9917      .3406     2.3563
