~VERSION INFORMATION
VERS.                                                 2.0:   CWLS Log ASCII Standard-VERSION 2.0
WRAP.                                                  NO:   One line per depth step
~Well Information Block
STRT.F                                          3712.5000:   Top Depth
STOP.F                                         13707.5000:   Bottom Depth
STEP.F                                             .50000:   Depth Increment
NULL.                                            -999.250:   Null Value
FLD .                                             FREEMAN:   Field Name
WELL.                                         FREEMAN-001:   NAME
CTRY.                                                 NIG:   COUNTRY
COMP.                                                SPDC:   OPERATOR
SPUD.                                          1995/09/27:   SPUD DATE
UWBI.                                      40000000257301:   UWBI
~PARAMETER INFORMATION (log)
LNAM.                                              PUBLIC:   NAME
LTYP.                                         INTERPRETED:   LOG TYPE
LSRV.                                          EVALUATION:   SERVICE
LSOU.                                             TECHLOG:   LOG SOURCE
LVSN.                                                   1:   LOG VERSION
BHIS.                                                  RC:   BRIEF HISTORY
FHIS.                                     RAW-LAS/PUBLISH:   FULL HISTORY
CN  .                                              SNEPCO:   OPERATOR
~Curve Information Block
#MNEM.UNIT                                        API CODE    No Description
#=========                                        ========    == ===========
DEPT.F     FT. MD                            00 001 00 00:     1  DEPTH
DEN.G/CC                                                 :     2  Bulk Density
DT.US/F                                                  :     3  Sonic (Compressional)         Compressional sonic
GR.API                                                   :     4  Gamma Ray
NEUT.FRAC                                                :     5  Neutron Porosity
RES_DEP.OHMM                                             :     6  Resistivity Deep              Deep resistivity. RSN_01<5433> ATR_J <65
~ASCII
# ...
 9202.5000     2.3424   118.1230    73.8183      .3896     2.2503
 9203.0000     2.3211   117.9310    71.9645      .3549     2.3254
 9203.5000     2.3092   118.1527    73.4547      .3389     2.4402
 9204.0000     2.3053   118.1017    75.3518      .3501     2.5478
 9204.5000     2.2984   117.4936    74.2242      .3630     2.5319
 9205.0000     2.2770   116.8485    74.8033      .3581     2.4438
 9205.5000     2.2907   116.5882    75.3747      .3618     2.3209
 9206.0000     2.3324   116.4139    75.3280      .3770     2.3244
 9206.5000     2.3691   116.1564    76.8672      .3844     2.2800
 9207.0000     2.3513   115.8022    77.6494      .3791     2.2885
 9207.5000     2.3245   115.5160    76.8745      .3857     2.2748
 9208.0000     2.3285   115.8044    81.3236      .4042     2.2856
 9208.5000     2.3526   116.5943    79.9385      .3887     2.2245
 9209.0000     2.3722   117.3279    79.1530      .3761     2.1824
 9209.5000     2.3697   117.9041    77.9576      .3601     2.2021
 9210.0000     2.3655   118.3834    81.7012      .3628     2.1823
 9210.5000     2.3634   118.8065    79.0359      .3533     2.1829
 9211.0000     2.3598   119.3123    78.2391      .3591     2.2200
 9211.5000     2.3528   119.5942    79.9003      .3653     2.2382
 9212.0000     2.3460   119.5084    79.3872      .3770     2.3214
 9212.5000     2.3412   119.4153    73.7955      .3597     2.3682
 9213.0000     2.3407   119.5343    78.3824      .3877     2.4268
 9213.5000     2.3481   119.7652    78.6878      .4012     2.4861
 9214.0000     2.3417   120.1170    80.5075      .4194     2.5366
 9214.5000     2.3334   120.6241    77.4788      .4142     2.5193
 9215.0000     2.3269   121.1849    77.0241      .3819     2.4814
 9215.5000     2.3275   121.3277    77.4425      .3862     2.4466
 9216.0000     2.3351   120.6077    76.8122      .3919     2.5944
 9216.5000     2.3101   119.5327    74.6136      .4191     2.7696
 9217.0000     2.2789   118.9383    73.7645      .4111     2.7691
 9217.5000     2.2724   118.8657    76.5161      .3730     2.8365
 9218.0000     2.2979   119.0196    76.4610      .3567     2.8028
 9218.5000     2.3284   119.5513    76.4057      .3430     2.7238
 9219.0000     2.3276   121.1282    76.4497      .3597     2.7545
 9219.5000     2.3139   123.1198    75.0029      .3631     2.9466
 9220.0000     2.3110   124.5965    71.9150      .3593     3.1719
 9220.5000     2.2955   125.8492    70.4305      .3407     3.4465
 9221.0000     2.2462   126.8127    72.4459      .3168     4.0837
 9221.5000     2.1921   127.0544    70.8374      .3126     4.9191
 9222.0000     2.1552   126.6226    70.9728      .2993     6.0680
 9222.5000     2.1590   125.8723    70.5092      .3190     7.0077
 9223.0000     2.1662   125.2982    72.6904      .3324     7.3838
 9223.5000     2.1559   125.2899    80.4854      .3272     7.5803
 9224.0000     2.1341   125.8918    84.1600      .3198     7.6006
 9224.5000     2.1295   126.7663    86.3900      .3180     7.4710
 9225.0000     2.1606   127.6128    87.7183      .3423     7.2253
 9225.5000     2.1833   128.2275    83.9857      .3280     6.7043
 9226.0000     2.1854   128.5772    82.1636      .3296     6.3994
 9226.5000     2.1816   129.0314    75.3070      .3157     6.1863
 9227.0000     2.1828   129.7042    74.5456      .3267     6.0849
 9227.5000     2.1816   129.9637    74.3578      .3162     6.1479
 9228.0000     2.1682   129.4859    71.7579      .3193     6.6260
 9228.5000     2.1486   128.4718    72.1936      .3061     7.3204
 9229.0000     2.1290   127.2639    74.3485      .3133     7.8324
 9229.5000     2.1316   126.6777    74.1707      .3171     7.6813
 9230.0000     2.1476   126.8471    76.6552      .3333     7.2926
 9230.5000     2.1723   126.9773    74.8144      .3264     6.2725
 9231.0000     2.1942   126.8117    77.0994      .3313     5.4560
 9231.5000     2.2065   126.4253    73.3981      .3227     4.9529
 9232.0000     2.2148   125.7229    74.7586      .3407     4.5217
 9232.5000     2.1962   124.6871    78.3280      .3330     5.0243
 9233.0000     2.1519   123.4431    71.0182      .3368     5.4865
 9233.5000     2.1343   122.4794    65.1385      .3394     5.7536
 9234.0000     2.1585   122.0909    69.6473      .3671     5.8094
 9234.5000     2.2306   122.3861    71.9414      .3649     5.1278
 9235.0000     2.2628   123.2118    79.9162      .3464     4.1320
 9235.5000     2.2699   124.1035    77.9024      .3336     3.5533
 9236.0000     2.2854   124.7787    77.5043      .3541     3.6226
 9236.5000     2.2647   125.0253    78.0690      .3576     3.8287
 9237.0000     2.2398   124.9535    78.8951      .3546     4.0688
 9237.5000     2.2058   124.8445    77.4481      .3374     4.4218
 9238.0000     2.2044   125.0659    79.4818      .3642     4.6330
 9238.5000     2.2042   126.0159    80.0523      .3734     4.6340
 9239.0000     2.2132   127.5225    75.3006      .3836     4.5945
 9239.5000     2.2313   129.2491    73.6112      .3792     4.4995
 9240.0000     2.2647   130.7743    76.6386      .3663     4.4888
 9240.5000     2.2665   131.3352    74.7900      .3599     4.7941
 9241.0000     2.2153   130.3841    72.1790      .3444     5.4160
 9241.5000     2.1615   128.0954    73.3171      .3306     6.4144
 9242.0000     2.1260   125.4770    72.3952      .3377     7.4921
 9242.5000     2.0966   122.8381    63.3238      .3326     9.2274
 9243.0000     2.1076   119.9021    61.8813      .3473     9.1338
 9243.5000     2.1536   117.4894    58.3675      .3485     7.0827
 9244.0000     2.2338   116.3920    63.6588      .3592     4.9023
 9244.5000     2.2958   115.9842    62.4953      .3700     3.7178
 9245.0000     2.3177   115.8995    62.5423      .3592     3.3023
 9245.5000     2.3067   116.3461    61.4391      .3486     2.9905
 9246.0000     2.3098   116.9530    58.5406      .3300     2.9682
 9246.5000     2.3279   117.3824    59.8061      .3408     2.9434
 9247.0000     2.3695   117.4865    71.2613      .3530     2.9652
 9247.5000     2.3767   116.9501    69.9412      .3481     3.0970
 9248.0000     2.3157   115.9125    68.9560      .3206     3.3989
 9248.5000     2.2320   114.9431    57.4268      .2730     4.0467
 9249.0000     2.1634   114.2975    44.8277      .2557     5.5295
 9249.5000     2.1480   113.6345    41.7549      .2439     9.6322
 9250.0000     2.1552   112.6925    39.8139      .2400    26.5568
 9250.5000     2.1679   111.7504    40.7531      .2263    53.1934
 9251.0000     2.1870   111.3657    39.1063      .2001    66.8610
 9251.5000     2.2093   112.0403    38.2247      .2071   114.5138
 9252.0000     2.2099   113.8787    37.7769      .2150   128.2783
 9252.5000     2.1866   115.7979    39.9026      .2373    90.5242
 9253.0000     2.1848   116.7455    39.2122      .2337    67.2555
 9253.5000     2.2074   116.9099    37.6547      .2434    48.3992
 9254.0000     2.2191   116.1861    38.4077      .2318    46.8170
 9254.5000     2.1931   114.6346    38.3504      .2323    51.5870
 9255.0000     2.1447   112.9555    40.5018      .2313    66.8960
 9255.5000     2.1274   111.5255    42.6604      .2475    89.7160
 9256.0000     2.1519   110.4187    37.1924      .2445    72.6385
 9256.5000     2.2063   109.6413    38.8020      .2182    59.0354
 9257.0000     2.2623   109.1378    39.5355      .1818    54.2010
 9257.5000     2.2821   108.9339    40.0868      .1647    49.7120
 9258.0000     2.2793   109.3525    37.8825      .1740    42.4472
 9258.5000     2.2592   110.2648    36.8435      .1954    48.7187
 9259.0000     2.2378   111.4999    36.2045      .2025    59.5608
 9259.5000     2.2113   112.8003    40.0960      .1890    79.7238
 9260.0000     2.1981   114.0646    38.7705      .1788   107.8901
 9260.5000     2.1964   115.9826    39.0085      .1778   109.7329
 9261.0000     2.1988   117.4801    38.3902      .1874    97.5670
 9261.5000     2.1936   116.6095    36.7230      .1920    91.1903
 9262.0000     2.1809   114.1665    40.7425      .1938    86.5444
 9262.5000     2.1634   111.8269    39.4170      .1979    78.4704
 9263.0000     2.1574   109.7717    39.5729      .2020    68.0742
