~VERSION INFORMATION
VERS.                                                 2.0:   CWLS Log ASCII Standard-VERSION 2.0
WRAP.                                                  NO:   One line per depth step
~Well Information Block
STRT.F                                          3712.5000:   Top Depth
STOP.F                                         13707.5000:   Bottom Depth
STEP.F                                             .50000:   Depth Increment
NULL.                                            -999.250:   Null Value
FLD .                                             FREEMAN:   Field Name
WELL.                                         FREEMAN-001:   NAME
CTRY.                                                 NIG:   COUNTRY
COMP.                                                SPDC:   OPERATOR
SPUD.                                          1995/09/27:   SPUD DATE
UWBI.                                      40000000257301:   UWBI
~PARAMETER INFORMATION (log)
LNAM.                                              PUBLIC:   NAME
LTYP.                                         INTERPRETED:   LOG TYPE
LSRV.                                          EVALUATION:   SERVICE
LSOU.                                             TECHLOG:   LOG SOURCE
LVSN.                                                   1:   LOG VERSION
BHIS.                                                  RC:   BRIEF HISTORY
FHIS.                                     RAW-LAS/PUBLISH:   FULL HISTORY
CN  .                                              SNEPCO:   OPERATOR
~Curve Information Block
#MNEM.UNIT                                        API CODE    No Description
#=========                                        ========    == ===========
DEPT.F     FT. MD                            00 001 00 00:     1  DEPTH
DEN.G/CC                                                 :     2  Bulk Density
DT.US/F                                                  :     3  Sonic (Compressional)         Compressional sonic
GR.API                                                   :     4  Gamma Ray
NEUT.FRAC                                                :     5  Neutron Porosity
RES_DEP.OHMM                                             :     6  Resistivity Deep              Deep resistivity. RSN_01<5433> ATR_J <65
~ASCII
# ...
 9812.5000     2.3817   117.1752    87.5312      .4611     1.6854
 9813.0000     2.3845   118.0338    86.6948      .4581     1.6602
 9813.5000     2.3850   119.1097    87.5879      .4828     1.6313
 9814.0000     2.3891   119.8097    87.8730      .4809     1.5995
 9814.5000     2.3848   119.9173    88.0198      .4690     1.5532
 9815.0000     2.3609   119.4274    88.4070      .4880     1.5205
 9815.5000     2.3674   118.4157    89.0527      .4476     1.5023
 9816.0000     2.3825   117.5011    88.8681      .4519     1.5066
 9816.5000     2.4167   117.1977    88.2583      .4280     1.5318
 9817.0000     2.4002   117.2895    84.8339      .4425     1.5461
 9817.5000     2.3675   117.4213    84.7053      .4364     1.5463
 9818.0000     2.3648   117.3112    89.5563      .4168     1.5471
 9818.5000     2.3493   116.9816    90.9576      .4247     1.5722
 9819.0000     2.3407   116.7190    91.2145      .4452     1.6168
 9819.5000     2.3285   116.6808    90.5367      .4445     1.6243
 9820.0000     2.3293   117.0172    90.6703      .4488     1.6356
 9820.5000     2.3358   117.6343    88.3818      .4259     1.6409
 9821.0000     2.3386   118.0949    88.5934      .4270     1.6445
 9821.5000     2.3233   118.3105    91.0237      .4008     1.6496
 9822.0000     2.3091   118.4561    91.8247      .4119     1.6541
 9822.5000     2.3025   118.6413    89.7074      .4137     1.6475
 9823.0000     2.3096   118.9709    88.2842      .4177     1.6428
 9823.5000     2.3047   119.5755    92.2148      .4200     1.6300
 9824.0000     2.3069   120.3194    92.7750      .4335     1.6207
 9824.5000     2.3057   120.8215    92.7675      .4338     1.6149
 9825.0000     2.3148   120.8174    91.3423      .4431     1.5911
 9825.5000     2.3165   120.3483    85.2701      .4481     1.5333
 9826.0000     2.3137   119.7267    83.3465      .4489     1.4753
 9826.5000     2.3126   119.0326    82.2416      .4237     1.4509
 9827.0000     2.3349   118.2831    79.9726      .4206     1.4747
 9827.5000     2.3482   117.4775    81.4158      .4199     1.5519
 9828.0000     2.3501   116.6412    79.0128      .4560     1.6424
 9828.5000     2.3388   116.2060    79.2906      .4733     1.7446
 9829.0000     2.3514   116.3711    80.3856      .4844     1.8006
 9829.5000     2.3637   116.6811    77.9839      .4651     1.7981
 9830.0000     2.3655   116.7496    81.1915      .4454     1.7734
 9830.5000     2.3753   116.4855    83.9000      .4720     1.7536
 9831.0000     2.3770   116.1089    87.1522      .4437     1.7392
 9831.5000     2.3901   115.8643    77.1783      .4112     1.7431
 9832.0000     2.3865   115.6363    67.9895      .3632     1.7456
 9832.5000     2.3954   115.4941    79.8510      .3650     1.7446
 9833.0000     2.3841   115.6183    80.1249      .4087     1.7411
 9833.5000     2.3799   115.7192    94.2837      .4077     1.7510
 9834.0000     2.3820   115.4849    85.9328      .4434     1.7486
 9834.5000     2.3917   115.0688    98.3071      .4539     1.7561
 9835.0000     2.4167   114.7522    93.5171      .4398     1.7647
 9835.5000     2.4569   114.7715    93.9504      .4098     1.7714
 9836.0000     2.4827   115.1496    88.1816      .3761     1.7841
 9836.5000     2.4426   115.4074    93.0794      .3899     1.7896
 9837.0000     2.3867   115.1839    92.4270      .3829     1.7750
 9837.5000     2.3631   114.8110    84.9083      .4021     1.7651
 9838.0000     2.3722   114.6675    88.9333      .4095     1.7490
 9838.5000     2.3818   114.7997    84.5874      .4514     1.7453
 9839.0000     2.3873   115.0083    83.9476      .4219     1.7383
 9839.5000     2.3897   115.2694    86.2626      .4590     1.7307
 9840.0000     2.3884   115.6141    85.6576      .4676     1.7208
 9840.5000     2.3770   115.8155    84.5705      .4644     1.7050
 9841.0000     2.3811   115.7778    84.1442      .4054     1.6911
 9841.5000     2.3855   115.7477    90.8225      .3969     1.6708
 9842.0000     2.3905   115.7474    83.5729      .4519     1.6611
 9842.5000     2.3598   115.5478    84.7954      .4738     1.6514
 9843.0000     2.3431   115.4450    91.3223      .4706     1.6538
 9843.5000     2.3324   115.8555    91.1010      .4223     1.6577
 9844.0000     2.3495   116.4927    89.9359      .4521     1.6648
 9844.5000     2.3697   117.0961    85.8254      .5058     1.6625
 9845.0000     2.3918   117.7759    85.7383      .5054     1.6522
 9845.5000     2.3925   118.1467    89.7890      .5163     1.6365
 9846.0000     2.3934   117.7458    88.4896      .4390     1.6262
 9846.5000     2.3946   116.8890    83.9810      .4653     1.6070
 9847.0000     2.3889   116.3144    85.1684      .4538     1.6019
 9847.5000     2.3856   116.1029    91.3050      .4623     1.6061
 9848.0000     2.3869   115.9221    90.3227      .4721     1.6035
 9848.5000     2.3862   115.4741    90.2992      .4453     1.6074
 9849.0000     2.3843   115.2662   105.2458      .4687     1.6260
 9849.5000     2.3849   116.2122    85.3866      .4459     1.6368
 9850.0000     2.3857   118.0198    89.2417      .4602     1.6419
 9850.5000     2.3889   120.0922    88.9632      .4599     1.6439
 9851.0000     2.3846   122.0188    86.5915      .5110     1.6381
 9851.5000     2.3730   123.2240    92.8988      .5484     1.5856
 9852.0000     2.3484   123.8154    91.3863      .4894     1.5446
 9852.5000     2.3215   124.1989    84.0721      .4659     1.5009
 9853.0000     2.2881   124.5738    82.5541      .4448     1.4272
 9853.5000     2.3000   124.9931    82.8172      .5037     1.3370
 9854.0000     2.3163   125.4935    81.8988      .5179     1.2723
 9854.5000     2.3506   126.2152    79.8065      .4841     1.2825
 9855.0000     2.3863   127.1539    80.0533      .4880     1.2910
 9855.5000     2.3978   128.1537    76.7564      .4567     1.2870
 9856.0000     2.3987   129.3162    88.5715      .4574     1.2946
 9856.5000     2.3679   130.4621    94.3002      .4392     1.3104
 9857.0000     2.3457   130.9518   107.4514      .4392     1.2101
 9857.5000     2.2929   130.5541   109.0370      .4935     1.0832
 9858.0000     2.2511   129.4971   108.6320      .4707     1.0001
 9858.5000     2.2250   128.1606   110.8157      .4965      .9554
 9859.0000     2.2478   126.9118   109.3796      .4757      .9147
 9859.5000     2.3070   126.0560   104.2109      .4896      .9066
 9860.0000     2.3560   125.5295    89.4077      .4411      .9561
 9860.5000     2.3910   125.1593    88.2803      .4484     1.0421
 9861.0000     2.3860   124.8765    86.9663      .4535     1.0997
 9861.5000     2.3783   124.5123    84.4152      .4463     1.1404
 9862.0000     2.3608   124.3049    88.4451      .4157     1.1861
 9862.5000     2.3756   124.3649    88.1463      .4105     1.2062
 9863.0000     2.3723   124.2649    85.7972      .4405     1.1990
 9863.5000     2.3735   123.9234    83.8600      .4262     1.2043
 9864.0000     2.3553   123.5409    84.2689      .4262     1.2254
 9864.5000     2.3620   123.2704    87.3192      .4316     1.2351
 9865.0000     2.3838   123.1423    86.0329      .4227     1.2582
 9865.5000     2.3750   122.8435    83.9748      .5054     1.2994
 9866.0000     2.3795   122.2050    80.5848      .4701     1.3119
 9866.5000     2.3693   121.4638    83.2872      .4877     1.3258
 9867.0000     2.3524   120.9899    80.1187      .4151     1.3271
 9867.5000     2.3506   121.0004    85.4303      .4795     1.3199
 9868.0000     2.3624   121.2991    87.3695      .4464     1.2997
 9868.5000     2.3711   121.5706    86.6925      .4160     1.2804
 9869.0000     2.3833   121.8772    87.0053      .3694     1.2717
 9869.5000     2.3892   122.2643    86.0956      .4310     1.2894
 9870.0000     2.3998   122.5928    87.2367      .4199     1.3033
 9870.5000     2.4027   122.8280    87.4345      .4455     1.3091
 9871.0000     2.4139   123.0811    81.5821      .4167     1.3142
 9871.5000     2.4057   123.2113    81.0156      .4649     1.3112
 9872.0000     2.4044   123.0622    81.1683      .4040     1.2956
 9872.5000     2.3974   122.8007    74.7219      .4538     1.2784
 9873.0000     2.3961   122.7236    77.5303      .4261     1.2748
