~VERSION INFORMATION
VERS.                                                 2.0:   CWLS Log ASCII Standard-VERSION 2.0
WRAP.                                                  NO:   One line per depth step
~Well Information Block
STRT.F                                          3712.5000:   Top Depth
STOP.F                                         13707.5000:   Bottom Depth
STEP.F                                             .50000:   Depth Increment
NULL.                                            -999.250:   Null Value
FLD .                                             FREEMAN:   Field Name
WELL.                                         FREEMAN-001:   NAME
CTRY.                                                 NIG:   COUNTRY
COMP.                                                SPDC:   OPERATOR
SPUD.                                          1995/09/27:   SPUD DATE
UWBI.                                      40000000257301:   UWBI
~PARAMETER INFORMATION (log)
LNAM.                                              PUBLIC:   NAME
LTYP.                                         INTERPRETED:   LOG TYPE
LSRV.                                          EVALUATION:   SERVICE
LSOU.                                             TECHLOG:   LOG SOURCE
LVSN.                                                   1:   LOG VERSION
BHIS.                                                  RC:   BRIEF HISTORY
FHIS.                                     RAW-LAS/PUBLISH:   FULL HISTORY
CN  .                                              SNEPCO:   OPERATOR
~Curve Information Block
#MNEM.UNIT                                        API CODE    No Description
#=========                                        ========    == ===========
DEPT.F     FT. MD                            00 001 00 00:     1  DEPTH
DEN.G/CC                                                 :     2  Bulk Density
DT.US/F                                                  :     3  Sonic (Compressional)         Compressional sonic
GR.API                                                   :     4  Gamma Ray
NEUT.FRAC                                                :     5  Neutron Porosity
RES_DEP.OHMM                                             :     6  Resistivity Deep              Deep resistivity. RSN_01<5433> ATR_J <65
~ASCII
# ...
13655.5000     2.3247   110.1258    81.2802      .4646  -999.2500
13656.0000     2.3288   110.1258    88.7207      .4363  -999.2500
13656.5000     2.3432   110.1258    81.6620      .4296  -999.2500
13657.0000     2.3385   110.1258    83.4759      .4319  -999.2500
13657.5000     2.3187   110.1258    84.8211      .4520  -999.2500
13658.0000     2.2971   110.1258    86.0708      .4581  -999.2500
13658.5000     2.2826   110.1258    86.1067      .4265  -999.2500
13659.0000     2.2764   110.1258    85.5580      .4223  -999.2500
13659.5000     2.2508   110.1258    83.0001      .4277  -999.2500
13660.0000     2.2178   110.1258    84.6455      .4510  -999.2500
13660.5000     2.1950   110.1258    84.3663      .4499  -999.2500
13661.0000     2.1758   110.1258    85.6761      .4558  -999.2500
13661.5000     2.1695   110.1258    85.5135      .4505  -999.2500
13662.0000     2.1618   110.1258    84.2511      .4516  -999.2500
13662.5000     2.1602   110.1258    82.5939      .4350  -999.2500
13663.0000     2.1502   110.1258    83.2977      .4472  -999.2500
13663.5000     2.1405   110.1258    81.9216      .4467  -999.2500
13664.0000     2.1389   110.1258    82.4971      .4328  -999.2500
13664.5000     2.1423   110.1258    82.0544      .4210  -999.2500
13665.0000     2.1385   110.1258    79.8530      .4276  -999.2500
13665.5000     2.1328   110.1258    81.0151      .4456  -999.2500
13666.0000     2.1412   110.1258    80.2545      .4628  -999.2500
13666.5000     2.1513   110.1258    78.9032      .4463  -999.2500
13667.0000     2.1601   110.1258    77.9325      .4357  -999.2500
13667.5000     2.1787   110.1258    76.0845      .4364  -999.2500
13668.0000     2.2312   110.1258    74.4384      .4259  -999.2500
13668.5000     2.2864   110.1258    71.8406      .4217  -999.2500
13669.0000     2.3803   110.1258    68.8350      .4173  -999.2500
13669.5000     2.4807   110.1258    69.9592      .4167  -999.2500
13670.0000     2.5031   110.1258    62.6305      .4146  -999.2500
13670.5000     2.4813   110.1258    60.7782      .4255  -999.2500
13671.0000     2.5092   110.1258    61.8719      .4465  -999.2500
13671.5000     2.5523   110.1258    59.5129      .4811  -999.2500
13672.0000     2.5688   110.1258    57.4938      .4787  -999.2500
13672.5000     2.5062   110.1258    55.4437      .4799  -999.2500
13673.0000     2.4855   110.1258    52.2252      .4819  -999.2500
13673.5000     2.4710   110.1258    47.2341      .4681  -999.2500
13674.0000     2.4843   110.1258    44.7691      .4657  -999.2500
13674.5000     2.4655   110.1258    42.0366      .4679  -999.2500
13675.0000     2.4626   110.1258    38.2942      .4477  -999.2500
13675.5000     2.4564   110.1258    35.4381      .4536  -999.2500
13676.0000     2.4585   110.1258    31.6592      .4488  -999.2500
13676.5000     2.3868   110.1258    28.9080      .4748  -999.2500
13677.0000     2.2996   110.1258    26.2186      .4597  -999.2500
13677.5000     2.2281   110.1258    24.1013      .4614  -999.2500
13678.0000     2.2280   110.1258    21.4316      .4613  -999.2500
13678.5000     2.2637   110.1258    19.5955      .4661  -999.2500
13679.0000     2.2724   110.1258    18.0879      .4556  -999.2500
13679.5000     2.2818   110.1258    16.3189      .4545  -999.2500
13680.0000     2.2859   110.1258    14.5838      .4640  -999.2500
13680.5000     2.2806   110.1258    13.1989      .4640  -999.2500
13681.0000     2.2816   110.1258    11.7603      .4658  -999.2500
13681.5000     2.2812   110.1258    10.1731      .4595  -999.2500
13682.0000     2.2787   110.1258     8.6433      .4640  -999.2500
13682.5000     2.2706   110.1258     7.1032      .4531  -999.2500
13683.0000     2.2657   110.1258     5.5738      .4600  -999.2500
13683.5000     2.2652   110.1258     3.9829      .4612  -999.2500
13684.0000     2.2750   110.1258     2.7513      .4724  -999.2500
13684.5000     2.2745   110.1258     1.6710      .4744  -999.2500
13685.0000     2.2626   110.1258     1.6711      .4772  -999.2500
13685.5000     2.2382   110.1258     1.6712      .4751  -999.2500
13686.0000     2.2197   110.1258     1.6713      .4713  -999.2500
13686.5000     2.2070   110.1258     1.6713      .4708  -999.2500
13687.0000     2.1899   110.1258     1.6714      .4708  -999.2500
13687.5000     2.1797   110.1258     1.6715      .4708  -999.2500
13688.0000     2.1872   110.1258     1.6717      .4708  -999.2500
13688.5000     2.2056   110.1258     1.6718      .4708  -999.2500
13689.0000     2.2176   110.1258     1.6719      .4708  -999.2500
13689.5000     2.2312   110.1258     1.6720      .4708  -999.2500
13690.0000     2.2332   110.1258     1.6722      .4708  -999.2500
13690.5000     2.2364   110.1258     1.6723      .4708  -999.2500
13691.0000     2.2298   110.1258     1.6725      .4708  -999.2500
13691.5000     2.2286   110.1258     1.6727      .4708  -999.2500
13692.0000     2.2292   110.1258     1.6729      .4708  -999.2500
13692.5000     2.2267   110.1258     1.6731      .4708  -999.2500
13693.0000     2.2384   110.1258     1.6734      .4708  -999.2500
13693.5000     2.2369   110.1258     1.6736      .4708  -999.2500
13694.0000     2.2338   110.1258     1.6739      .4708  -999.2500
13694.5000     2.2193   110.1258     1.6742      .4708  -999.2500
13695.0000     2.2178   110.1258     1.6745      .4708  -999.2500
13695.5000     2.2142   110.1258     1.6749      .4708  -999.2500
13696.0000     2.2207   110.1258     1.6753      .4708  -999.2500
13696.5000     2.2299   110.1258     1.6757      .4708  -999.2500
13697.0000     2.2372   110.1258     1.6761      .4708  -999.2500
13697.5000     2.2418   110.1258     1.6766      .4708  -999.2500
13698.0000     2.2406   110.1258     1.6771      .4708  -999.2500
13698.5000     2.2459   110.1258     1.6776      .4708  -999.2500
13699.0000     2.2344   110.1258     1.6783      .4708  -999.2500
13699.5000     2.2418   110.1258     1.6789      .4708  -999.2500
13700.0000     2.2380   110.1258     1.6796      .4708  -999.2500
13700.5000     2.2443   110.1258     1.6804      .4708  -999.2500
13701.0000     2.2357   110.1258     1.6812      .4708  -999.2500
13701.5000     2.2361   110.1258     1.6821      .4708  -999.2500
13702.0000     2.2280   110.1258     1.6831      .4708  -999.2500
13702.5000     2.2296  -999.2500     1.6842      .4708  -999.2500
13703.0000     2.2313  -999.2500     1.6853      .4708  -999.2500
13703.5000     2.2084  -999.2500     1.6865      .4708  -999.2500
13704.0000     2.1781  -999.2500     1.6879      .4710  -999.2500
13704.5000     2.1551  -999.2500     1.6894      .4710  -999.2500
13705.0000     2.1480  -999.2500     1.6910      .4710  -999.2500
13705.5000     2.1419  -999.2500     1.6927      .4710  -999.2500
13706.0000     2.1419  -999.2500     1.6946      .4710  -999.2500
13706.5000     2.1419  -999.2500     1.6966      .4710  -999.2500
13707.0000     2.1419  -999.2500     1.6987      .4710  -999.2500
13707.5000     2.1419  -999.2500     1.7008      .4710  -999.2500
