~VERSION INFORMATION
VERS.                                                 2.0:   CWLS Log ASCII Standard-VERSION 2.0
WRAP.                                                  NO:   One line per depth step
~Well Information Block
STRT.F                                          3712.5000:   Top Depth
STOP.F                                         13707.5000:   Bottom Depth
STEP.F                                             .50000:   Depth Increment
NULL.                                            -999.250:   Null Value
FLD .                                             FREEMAN:   Field Name
WELL.                                         FREEMAN-001:   NAME
CTRY.                                                 NIG:   COUNTRY
COMP.                                                SPDC:   OPERATOR
SPUD.                                          1995/09/27:   SPUD DATE
UWBI.                                      40000000257301:   UWBI
~PARAMETER INFORMATION (log)
LNAM.                                              PUBLIC:   NAME
LTYP.                                         INTERPRETED:   LOG TYPE
LSRV.                                          EVALUATION:   SERVICE
LSOU.                                             TECHLOG:   LOG SOURCE
LVSN.                                                   1:   LOG VERSION
BHIS.                                                  RC:   BRIEF HISTORY
FHIS.                                     RAW-LAS/PUBLISH:   FULL HISTORY
CN  .                                              SNEPCO:   OPERATOR
~Curve Information Block
#MNEM.UNIT                                        API CODE    No Description
#=========                                        ========    == ===========
DEPT.F     FT. MD                            00 001 00 00:     1  DEPTH
DEN.G/CC                                                 :     2  Bulk Density
DT.US/F                                                  :     3  Sonic (Compressional)         Compressional sonic
GR.API                                                   :     4  Gamma Ray
NEUT.FRAC                                                :     5  Neutron Porosity
RES_DEP.OHMM                                             :     6  Resistivity Deep              Deep resistivity. RSN_01<5433> ATR_J <65
~ASCII
# ...
11459.5000     2.4495   110.0000    81.0253      .3917     1.4382
11460.0000     2.4385   110.0000    83.6575      .3926     1.4757
11460.5000     2.4343   110.0000    80.6611      .3898     1.4942
11461.0000     2.4384   109.0000    81.7250      .3816     1.4763
11461.5000     2.4475   108.0000    79.5717      .4032     1.4969
11462.0000     2.4631   108.0000    80.5803      .3852     1.5375
11462.5000     2.4603   108.0000    82.2436      .3824     1.5381
11463.0000     2.4690   109.0000    81.7375      .3675     1.5546
11463.5000     2.4701   109.0000    79.4928      .3601     1.5863
11464.0000     2.4805   109.0000    77.4392      .3743     1.6200
11464.5000     2.4779   109.0000    78.3430      .3568     1.6502
11465.0000     2.4728   109.0000    79.9571      .3812     1.6431
11465.5000     2.4715   110.0000    77.9287      .3795     1.5998
11466.0000     2.4616   110.0000    79.0492      .3864     1.5762
11466.5000     2.4612   109.0000    80.8198      .3580     1.5749
11467.0000     2.4496   109.0000    77.0558      .3579     1.6055
11467.5000     2.4532   109.0000    80.2465      .3660     1.6419
11468.0000     2.4495   109.0000    80.4986      .3788     1.6719
11468.5000     2.4529   109.0000    77.7622      .3843     1.6822
11469.0000     2.4431   109.0000    78.9667      .3789     1.6368
11469.5000     2.4454   108.0000    77.3700      .3709     1.6072
11470.0000     2.4506   107.0000    75.8093      .3669     1.5865
11470.5000     2.4552   106.0000    76.1397      .3560     1.5674
11471.0000     2.4604   106.0000    76.2787      .3665     1.5824
11471.5000     2.4580   107.0000    77.1480      .3649     1.6635
11472.0000     2.4588   107.0000    78.4129      .3950     1.7250
11472.5000     2.4802   106.0000    77.1064      .3997     1.7459
11473.0000     2.5028   106.0000    76.8550      .4103     1.7436
11473.5000     2.5158   105.0000    75.1607      .4177     1.6862
11474.0000     2.4869   105.0000    81.5316      .4160     1.6690
11474.5000     2.4682   104.0000    78.8779      .4097     1.6593
11475.0000     2.4582   105.0000    78.3214      .3959     1.6592
11475.5000     2.4621   106.0000    79.2432      .4090     1.6688
11476.0000     2.4612   107.0000    80.2013      .4013     1.6983
11476.5000     2.4474   107.0000    79.7400      .3668     1.6865
11477.0000     2.4323   107.0000    81.2631      .3484     1.6140
11477.5000     2.4431   107.0000    77.0601      .3539     1.5992
11478.0000     2.4446   107.0000    77.2257      .3688     1.6393
11478.5000     2.4417   108.0000    79.7284      .3854     1.6808
11479.0000     2.4215   107.0000    78.9973      .3991     1.7109
11479.5000     2.4304   106.0000    80.7629      .4023     1.6960
11480.0000     2.4514   107.0000    82.0568      .3957     1.6519
11480.5000     2.4687   108.0000    83.5073      .3812     1.6221
11481.0000     2.4713   108.0000    81.3522      .3955     1.5808
11481.5000     2.4616   108.0000    82.7756      .3682     1.5387
11482.0000     2.4525   107.0000    83.3842      .3682     1.5225
11482.5000     2.4467   107.0000    82.6788      .3463     1.5140
11483.0000     2.4358   106.0000    80.8632      .3803     1.5517
11483.5000     2.4193   106.0000    81.3534      .3944     1.6149
11484.0000     2.3975   107.0000    81.2970      .4105     1.6462
11484.5000     2.3892   108.0000    80.9926      .3888     1.6655
11485.0000     2.3929   110.0000    82.0288      .3814     1.6746
11485.5000     2.4128   111.0000    81.6016      .3800     1.6341
11486.0000     2.4178   111.0000    80.9093      .3896     1.5912
11486.5000     2.4142   110.0000    80.9735      .3818     1.5266
11487.0000     2.4115   109.0000    82.7358      .3690     1.4753
11487.5000     2.4208   108.0000    78.9910      .3745     1.4530
11488.0000     2.4413   108.0000    83.3711      .3599     1.4581
11488.5000     2.4561   107.0000    84.1292      .3844     1.4840
11489.0000     2.4629   107.0000    82.9733      .3783     1.4981
11489.5000     2.4585   107.0000    82.6372      .3873     1.5057
11490.0000     2.4493   107.0000    83.5320      .3850     1.5424
11490.5000     2.4549   106.0000    82.8483      .3866     1.5983
11491.0000     2.4724   106.0000    81.9394      .3945     1.6782
11491.5000     2.4778   105.0000    80.9002      .3984     1.7159
11492.0000     2.4667   105.0000    81.9799      .4149     1.7630
11492.5000     2.4551   105.0000    83.3044      .4094     1.7906
11493.0000     2.4575   105.0000    81.9860      .3906     1.7828
11493.5000     2.4591   106.0000    81.8627      .3801     1.7665
11494.0000     2.4646   108.0000    81.6970      .4010     1.7230
11494.5000     2.4605   109.0000    81.2219      .4125     1.6520
11495.0000     2.4522   111.0000    80.0786      .4081     1.6091
11495.5000     2.4522   113.0000    79.9120      .4070     1.5137
11496.0000     2.4522   115.0000    81.0586      .4191     1.4362
11496.5000     2.4522   117.0000    78.5549      .4424     1.3977
11497.0000     2.4522   119.0000    78.0011      .4260     1.3524
11497.5000     2.4522   120.0000    78.5657      .4293     1.3707
11498.0000     2.4522   120.0000    78.2797      .4182     1.4260
11498.5000     2.4522   118.0000    76.8816      .4409     1.3940
11499.0000     2.4522   116.0000    77.6985      .4480     1.3009
11499.5000     2.4522   113.0000    78.0788      .4568     1.3986
11500.0000     2.4522   110.0000    76.7013      .4608     1.4468
11500.5000     2.4522   109.0000    76.3773      .4553     1.4943
11501.0000     2.4522   109.0000    77.6318      .4200     1.6028
11501.5000     2.4522   110.0000    76.2460      .3831     1.6446
11502.0000     2.4522   110.0000    77.1491      .3658     1.6207
11502.5000     2.4522   111.0000    76.2427      .4038     1.6412
11503.0000     2.4522   111.0000    74.7282      .4129     1.6740
11503.5000     2.4522   111.0000    75.2562      .4353     1.6270
11504.0000     2.4522   110.0000    75.0903      .4221     1.5723
11504.5000     2.4522   109.0000    75.7541      .4299     1.5671
11505.0000     2.4522   108.0000    78.1234      .4474     1.5670
11505.5000     2.4522   108.0000    75.8123      .4407     1.5870
11506.0000     2.4522   108.0000    73.5295      .4430     1.6122
11506.5000     2.4522   110.0000    71.8324      .3953     1.6091
11507.0000     2.4522   112.0000    71.9569      .3864     1.5907
11507.5000     2.4522   112.0000    73.1185      .3823     1.6178
11508.0000     2.4522   112.0000    75.7706      .4120     1.6582
11508.5000     2.4522   112.0000    78.1181      .4280     1.6290
11509.0000     2.4522   112.0000    80.1159      .4241     1.6297
11509.5000     2.4522   111.0000    77.9603      .3942     1.6488
11510.0000     2.4522   111.0000    77.0350      .3830     1.6148
11510.5000     2.4522   111.0000    77.0885      .3976     1.6448
11511.0000     2.4522   112.0000    77.4083      .4128     1.6599
11511.5000     2.4522   113.0000    75.2285      .4036     1.6728
11512.0000     2.4522   115.0000    75.3749      .3901     1.6189
11512.5000     2.4522   115.0000    73.2203      .4283     1.5254
11513.0000     2.4522   115.0000    74.8622      .4605     1.4881
11513.5000     2.4522   114.0000    75.4402      .4540     1.4237
11514.0000     2.4522   114.0000    74.6753      .4112     1.4192
11514.5000     2.4522   113.0000    77.8890      .4101     1.5059
11515.0000     2.4522   113.0000    80.3853      .4047     1.6363
11515.5000     2.4522   114.0000    76.9675      .3982     1.6729
11516.0000     2.4522   116.0000    75.5764      .3983     1.7403
11516.5000     2.4522   118.0000    79.7485      .4208     1.9601
11517.0000     2.4522   119.0000    75.7952      .4705     1.8886
11517.5000     2.4522   121.0000    75.4567      .4715     1.6431
11518.0000     2.4522   121.0000    73.9402      .4747     1.3499
11518.5000     2.4522   121.0000    73.0740      .4531     1.2093
11519.0000     2.4522   120.0000    73.0300      .4394     1.1744
11519.5000     2.4522   117.0000    74.1308      .4076     1.1967
11520.0000     2.4522   115.0000    72.7320      .4343     1.2573
