~VERSION INFORMATION
VERS.                                                 2.0:   CWLS Log ASCII Standard-VERSION 2.0
WRAP.                                                  NO:   One line per depth step
~Well Information Block
STRT.F                                          3712.5000:   Top Depth
STOP.F                                         13707.5000:   Bottom Depth
STEP.F                                             .50000:   Depth Increment
NULL.                                            -999.250:   Null Value
FLD .                                             FREEMAN:   Field Name
WELL.                                         FREEMAN-001:   NAME
CTRY.                                                 NIG:   COUNTRY
COMP.                                                SPDC:   OPERATOR
SPUD.                                          1995/09/27:   SPUD DATE
UWBI.                                      40000000257301:   UWBI
~PARAMETER INFORMATION (log)
LNAM.                                              PUBLIC:   NAME
LTYP.                                         INTERPRETED:   LOG TYPE
LSRV.                                          EVALUATION:   SERVICE
LSOU.                                             TECHLOG:   LOG SOURCE
LVSN.                                                   1:   LOG VERSION
BHIS.                                                  RC:   BRIEF HISTORY
FHIS.                                     RAW-LAS/PUBLISH:   FULL HISTORY
CN  .                                              SNEPCO:   OPERATOR
~Curve Information Block
#MNEM.UNIT                                        API CODE    No Description
#=========                                        ========    == ===========
DEPT.F     FT. MD                            00 001 00 00:     1  DEPTH
DEN.G/CC                                                 :     2  Bulk Density
DT.US/F                                                  :     3  Sonic (Compressional)         Compressional sonic
GR.API                                                   :     4  Gamma Ray
NEUT.FRAC                                                :     5  Neutron Porosity
RES_DEP.OHMM                                             :     6  Resistivity Deep              Deep resistivity. RSN_01<5433> ATR_J <65
~ASCII
# ...
 7555.5000     2.2223   136.3575    94.4050      .4910     1.8970
 7556.0000     2.2247   133.8949    92.6362      .4723     1.8310
 7556.5000     2.2156   131.7815    93.9973      .4834     1.8500
 7557.0000     2.2033   130.4628    94.9709      .4895     1.8402
 7557.5000     2.1948   129.8034    94.5729      .4888     1.8598
 7558.0000     2.2041   130.1957    98.5739      .4522     1.9186
 7558.5000     2.2123   131.9895    97.1455      .4354     1.8865
 7559.0000     2.2264   135.1643    95.2521      .4736     1.8774
 7559.5000     2.2038   138.5105    94.1246      .5020     1.7864
 7560.0000     2.1847   140.1513    91.4996      .4862     1.7146
 7560.5000     2.1616   139.7820    91.7013      .4687     1.6042
 7561.0000     2.1174   138.7374    94.0970      .4945     1.5033
 7561.5000     2.0720   137.9959    92.9582      .5296     1.5093
 7562.0000     2.0623   137.4512    92.8959      .5611     1.5035
 7562.5000     2.1287   137.3415    97.2093      .5159     1.4813
 7563.0000     2.1751   138.1650    93.5035      .5045     1.5802
 7563.5000     2.1903   139.1590    93.2445      .4554     1.5659
 7564.0000     2.1631   139.2167    97.2930      .4894     1.5257
 7564.5000     2.1544   138.7874    98.9898      .5070     1.5058
 7565.0000     2.1369   138.7779    98.4199      .5330     1.4857
 7565.5000     2.1442   139.2545    99.5473      .4962     1.5154
 7566.0000     2.1574   140.0300    97.4152      .4566     1.5179
 7566.5000     2.1498   140.7208    96.0416      .4645     1.5157
 7567.0000     2.1240   141.3978    94.1101      .4898     1.5317
 7567.5000     2.1437   142.3506    95.0372      .5523     1.4855
 7568.0000     2.1631   143.2878    95.5771      .5509     1.4789
 7568.5000     2.1726   144.1667    98.5259      .5255     1.4704
 7569.0000     2.1660   144.7917    96.3730      .5247     1.4340
 7569.5000     2.1347   144.8287    95.5518      .4996     1.4861
 7570.0000     2.1221   144.3124    93.8260      .5052     1.4759
 7570.5000     2.1278   143.5461    96.8655      .4795     1.4714
 7571.0000     2.1379   143.0680    93.3120      .5019     1.4800
 7571.5000     2.1473   143.2048    92.8668      .4870     1.4744
 7572.0000     2.1644   143.5815    92.5577      .4974     1.4955
 7572.5000     2.1511   143.7976    94.2650      .5092     1.4691
 7573.0000     2.1512   143.8198    94.6824      .5436     1.5072
 7573.5000     2.1576   143.6999    98.4918      .5057     1.4770
 7574.0000     2.1643   143.6918    95.1311      .5223     1.4748
 7574.5000     2.1664   143.7206    94.6843      .4894     1.4934
 7575.0000     2.1663   143.5321    93.6301      .5030     1.4573
 7575.5000     2.1776   143.1926    91.7189      .4840     1.4869
 7576.0000     2.1635   143.0327    90.9419      .4984     1.4612
 7576.5000     2.1636   143.3748    92.4178      .4805     1.4679
 7577.0000     2.1410   144.1598    91.9606      .4508     1.4716
 7577.5000     2.1341   145.0885    90.5503      .4568     1.4819
 7578.0000     2.1285   145.9739    89.1380      .4553     1.5131
 7578.5000     2.1415   146.3522    90.3046      .4552     1.5113
 7579.0000     2.1334   145.8240    89.8007      .4560     1.5355
 7579.5000     2.1125   144.9586    89.4821      .4707     1.5270
 7580.0000     2.1280   144.7212    87.6400      .4702     1.5527
 7580.5000     2.1386   144.6411    87.5713      .4629     1.5584
 7581.0000     2.1594   143.9506    89.1482      .4714     1.6116
 7581.5000     2.1511   143.0979    89.6238      .4829     1.6038
 7582.0000     2.1388   142.6913    89.3592      .5193     1.5941
 7582.5000     2.1393   142.5375    89.4220      .5169     1.6164
 7583.0000     2.1321   142.0491    90.0869      .5287     1.5746
 7583.5000     2.1422   140.6620    91.5744      .4915     1.5685
 7584.0000     2.1540   138.7976    91.0084      .4668     1.5683
 7584.5000     2.1561   137.5327    90.6072      .4445     1.5467
 7585.0000     2.1558   136.8662    89.2363      .4456     1.5667
 7585.5000     2.1586   136.2205    89.2409      .4855     1.6001
 7586.0000     2.1588   135.6293    88.6859      .5129     1.6036
 7586.5000     2.1513   135.2307    88.9445      .5226     1.6842
 7587.0000     2.1644   134.8772    87.1717      .5073     1.7249
 7587.5000     2.2002   134.1404    87.2114      .4835     1.7448
 7588.0000     2.2211   132.7833    88.2274      .4867     1.7638
 7588.5000     2.2165   131.5133    88.4365      .5013     1.8070
 7589.0000     2.1962   131.1787    89.5434      .4983     1.7758
 7589.5000     2.2012   131.1966    90.9196      .4725     1.7925
 7590.0000     2.1990   130.9031    91.2783      .4361     1.8691
 7590.5000     2.2070   130.7711    90.6370      .4309     1.9007
 7591.0000     2.2178   131.2614    90.0241      .4306     1.9332
 7591.5000     2.2392   132.1563    92.1414      .4177     1.9140
 7592.0000     2.2450   133.0158    89.5148      .4085     1.9404
 7592.5000     2.2581   133.7284    87.4209      .4473     1.9243
 7593.0000     2.2564   134.3485    89.2280      .4729     1.9140
 7593.5000     2.2486   134.7117    90.0100      .4503     1.8568
 7594.0000     2.2305   134.7527    89.4424      .4132     1.7700
 7594.5000     2.2013   134.4904    88.9373      .4019     1.7015
 7595.0000     2.1751   133.7946    90.2424      .4340     1.6246
 7595.5000     2.1464   132.7253    86.1716      .4472     1.6377
 7596.0000     2.1890   131.8121    87.9934      .4702     1.6380
 7596.5000     2.2160   131.2438    86.0490      .4796     1.7091
 7597.0000     2.2239   130.8897    84.0952      .4612     1.7319
 7597.5000     2.2199   130.6269    85.5956      .4369     1.8128
 7598.0000     2.2384   130.1360    86.6807      .4156     1.8418
 7598.5000     2.2181   129.9128    89.2162      .4423     1.7511
 7599.0000     2.1435   131.1017    88.6297      .4732     1.6817
 7599.5000     2.0907   133.5917    90.9738      .4610     1.4912
 7600.0000     2.0760   137.0430    90.2296      .4578     1.3788
 7600.5000     2.1107   140.7752    89.8727      .4597     1.2988
 7601.0000     2.1123   143.3897    87.9873      .4909     1.3024
 7601.5000     2.1213   144.0388    86.5394      .4977     1.2469
 7602.0000     2.1218   143.2046    86.9699      .5056     1.2690
 7602.5000     2.1398   142.3578    89.2420      .5214     1.2585
 7603.0000     2.1361   141.7447    90.3932      .5676     1.2951
 7603.5000     2.1267   140.9774    91.1276      .5423     1.3024
 7604.0000     2.1152   140.0856    91.2476      .5356     1.2938
 7604.5000     2.1028   138.9716    89.4595      .4971     1.3154
 7605.0000     2.1007   137.4637    97.0876      .5352     1.3026
 7605.5000     2.1314   135.6229    97.2552      .5338     1.3562
 7606.0000     2.1539   133.7935    95.8632      .5219     1.3467
 7606.5000     2.1807   132.4146    97.8742      .5146     1.4244
 7607.0000     2.2001   131.7812    91.1665      .4878     1.5786
 7607.5000     2.2309   131.6721    89.1302      .4528     1.7984
 7608.0000     2.2478   131.3732    86.9670      .4119     2.0449
 7608.5000     2.2398   130.5092    86.6972      .3995     2.1263
 7609.0000     2.2173   129.1523    88.3636      .4008     2.1690
 7609.5000     2.2030   127.9181    87.6911      .4014     2.1047
 7610.0000     2.2207   127.5480    90.2347      .4196     2.0387
 7610.5000     2.2564   128.0756    92.5831      .4122     2.0048
 7611.0000     2.2654   129.3204    89.7978      .4066     2.0578
 7611.5000     2.2569   131.2625    90.0162      .4116     2.0311
 7612.0000     2.2323   132.8503    89.8378      .4334     1.9754
 7612.5000     2.2195   132.8582    89.8679      .4339     2.0471
 7613.0000     2.2412   131.8506    89.6510      .4038     2.0068
 7613.5000     2.2796   130.0899    94.4573      .3938     2.0706
 7614.0000     2.3104   127.9894    95.8844      .3875     2.0751
 7614.5000     2.3109   126.7918    96.8018      .4322     1.9750
 7615.0000     2.2887   126.8151    98.7385      .4616     1.8719
 7615.5000     2.2461   127.9618    97.1480      .5231     1.7588
 7616.0000     2.2020   130.2056    98.3516      .4924     1.6156
